{
"type": "FeatureCollection",
"features": [
{ "type": "Feature", "properties": { "osmid": "430425341", "amenity": "bicycle_rental", "capacity": "18", "name": "55 - Les Rambles", "network": "bicing" }, "geometry": { "type": "Point", "coordinates": [ 2.173624, 41.3810876 ] } },
{ "type": "Feature", "properties": { "osmid": "430848840", "amenity": "bicycle_rental", "capacity": "18", "name": "59 - Plaça dels Angels", "network": "bicing" }, "geometry": { "type": "Point", "coordinates": [ 2.1673481, 41.3828572 ] } },
{ "type": "Feature", "properties": { "osmid": "430848842", "amenity": "bicycle_rental", "capacity": "18", "name": "56 - Portal de Santa Madrona", "network": "bicing" }, "geometry": { "type": "Point", "coordinates": [ 2.1758121, 41.3770233 ] } },
{ "type": "Feature", "properties": { "osmid": "430848844", "amenity": "bicycle_rental", "capacity": "18", "name": "54 - Sant Oleguer", "network": "bicing" }, "geometry": { "type": "Point", "coordinates": [ 2.1707311, 41.3775384 ] } },
{ "type": "Feature", "properties": { "osmid": "430848845", "amenity": "bicycle_rental", "capacity": "18", "name": "416 - Rambla del Raval", "network": "bicing" }, "geometry": { "type": "Point", "coordinates": [ 2.1696489, 41.3781272 ] } },
{ "type": "Feature", "properties": { "osmid": "430848847", "amenity": "bicycle_rental", "capacity": "18", "name": "232 - Carrer de Vila i Vilà", "network": "bicing" }, "geometry": { "type": "Point", "coordinates": [ 2.1710147, 41.3734819 ] } },
{ "type": "Feature", "properties": { "osmid": "430848848", "amenity": "bicycle_rental", "capacity": "18", "name": "233 - Carrer Nou de la Rambla", "network": "bicing" }, "geometry": { "type": "Point", "coordinates": [ 2.1667336, 41.3718855 ] } },
{ "type": "Feature", "properties": { "osmid": "430848849", "amenity": "bicycle_rental", "capacity": "18", "name": "234 - Passeig de l'Exposició", "network": "bicing" }, "geometry": { "type": "Point", "coordinates": [ 2.1621445, 41.3714984 ] } },
{ "type": "Feature", "properties": { "osmid": "430848850", "amenity": "bicycle_rental", "capacity": "18", "name": "236 - Carrer de la França Xica", "network": "bicing" }, "geometry": { "type": "Point", "coordinates": [ 2.1565609, 41.372149 ] } },
{ "type": "Feature", "properties": { "osmid": "430848852", "amenity": "bicycle_rental", "capacity": "18", "name": "86 - Paral·lel", "network": "bicing" }, "geometry": { "type": "Point", "coordinates": [ 2.1636416, 41.375127 ] } },
{ "type": "Feature", "properties": { "osmid": "430848853", "amenity": "bicycle_rental", "capacity": "18", "name": "373 - Paral·lel", "network": "bicing" }, "geometry": { "type": "Point", "coordinates": [ 2.1613933, 41.3751228 ] } },
{ "type": "Feature", "properties": { "osmid": "430848854", "amenity": "bicycle_rental", "capacity": "18", "name": "85 - Paral·lel 146", "network": "bicing" }, "geometry": { "type": "Point", "coordinates": [ 2.1590871, 41.3751165 ] } },
{ "type": "Feature", "properties": { "osmid": "430848855", "amenity": "bicycle_rental", "capacity": "18", "name": "386 - Paral·lel", "network": "bicing" }, "geometry": { "type": "Point", "coordinates": [ 2.1568414, 41.3750749 ] } },
{ "type": "Feature", "properties": { "osmid": "430848856", "amenity": "bicycle_rental", "capacity": "18", "name": "112 - Carrer de Floridablanca", "network": "bicing" }, "geometry": { "type": "Point", "coordinates": [ 2.1572571, 41.3777158 ] } },
{ "type": "Feature", "properties": { "osmid": "430848857", "amenity": "bicycle_rental", "capacity": "18", "name": "113 - Carrer de Compte Borrell", "network": "bicing" }, "geometry": { "type": "Point", "coordinates": [ 2.1609174, 41.3787531 ] } },
{ "type": "Feature", "properties": { "osmid": "430848859", "amenity": "bicycle_rental", "capacity": "18", "name": "415 - Rambla del Raval", "network": "bicing" }, "geometry": { "type": "Point", "coordinates": [ 2.1690434, 41.379368 ] } },
{ "type": "Feature", "properties": { "osmid": "430848861", "amenity": "bicycle_rental", "capacity": "18", "name": "51 - Plaça Vicenç Martorell", "network": "bicing" }, "geometry": { "type": "Point", "coordinates": [ 2.1690909, 41.3840469 ] } },
{ "type": "Feature", "properties": { "osmid": "430848862", "amenity": "bicycle_rental", "capacity": "18", "name": "63 - Plaça Catalunya", "network": "bicing" }, "geometry": { "type": "Point", "coordinates": [ 2.169519, 41.3863053 ] } },
{ "type": "Feature", "properties": { "osmid": "430848863", "amenity": "bicycle_rental", "capacity": "18", "name": "62 - Plaça Catalunya", "network": "bicing" }, "geometry": { "type": "Point", "coordinates": [ 2.1688074, 41.3871326 ] } },
{ "type": "Feature", "properties": { "osmid": "430848864", "amenity": "bicycle_rental", "capacity": "18", "name": "64 - Plaça Catalunya", "network": "bicing" }, "geometry": { "type": "Point", "coordinates": [ 2.1691089, 41.3875014 ] } },
{ "type": "Feature", "properties": { "osmid": "430848865", "amenity": "bicycle_rental", "capacity": "18", "name": "65 - Plaça Catalunya", "network": "bicing" }, "geometry": { "type": "Point", "coordinates": [ 2.1697076, 41.3877313 ] } },
{ "type": "Feature", "properties": { "osmid": "430848867", "amenity": "bicycle_rental", "capacity": "18", "name": "380 - Carrer Duran i Bas", "network": "bicing" }, "geometry": { "type": "Point", "coordinates": [ 2.1742151, 41.3854991 ] } },
{ "type": "Feature", "properties": { "osmid": "457767750", "amenity": "bicycle_rental", "capacity": "24", "name": "53 - Plaça Carles Pi i Sunyer", "network": "bicing" }, "geometry": { "type": "Point", "coordinates": [ 2.1738391, 41.3852178 ] } },
{ "type": "Feature", "properties": { "osmid": "506131406", "amenity": "bicycle_rental", "capacity": "21", "name": "17 - Av. Meridiana 47", "network": "bicing" }, "geometry": { "type": "Point", "coordinates": [ 2.1867243, 41.3981971 ] } },
{ "type": "Feature", "properties": { "osmid": "506131409", "amenity": "bicycle_rental", "capacity": "20", "name": "16 - Av. Meridiana 47", "network": "bicing" }, "geometry": { "type": "Point", "coordinates": [ 2.1867276, 41.398156 ] } },
{ "type": "Feature", "properties": { "osmid": "506219372", "amenity": "bicycle_rental", "capacity": "29", "name": "1 - Gran Via Corts Catalanes", "network": "bicing" }, "geometry": { "type": "Point", "coordinates": [ 2.1800431, 41.3979941 ] } },
{ "type": "Feature", "properties": { "osmid": "506223349", "amenity": "bicycle_rental", "capacity": "23", "name": "152 - Pujades 121", "network": "bicing" }, "geometry": { "type": "Point", "coordinates": [ 2.1974421, 41.3992715 ] } },
{ "type": "Feature", "properties": { "osmid": "506236254", "amenity": "bicycle_rental", "capacity": "20", "name": "4 - Ribes", "network": "bicing" }, "geometry": { "type": "Point", "coordinates": [ 2.1815184, 41.3934809 ] } },
{ "type": "Feature", "properties": { "osmid": "506236264", "amenity": "bicycle_rental", "capacity": "28", "name": "46 - Ramon trias Fargas 19", "network": "bicing" }, "geometry": { "type": "Point", "coordinates": [ 2.1930102, 41.388321 ] } },
{ "type": "Feature", "properties": { "osmid": "506236265", "amenity": "bicycle_rental", "capacity": "27", "name": "407 - Ramon Trias Fargas 19", "network": "bicing" }, "geometry": { "type": "Point", "coordinates": [ 2.1928133, 41.38844 ] } },
{ "type": "Feature", "properties": { "osmid": "506236268", "amenity": "bicycle_rental", "capacity": "18", "name": "45 - Marina 66", "network": "bicing" }, "geometry": { "type": "Point", "coordinates": [ 2.1904046, 41.3920007 ] } },
{ "type": "Feature", "properties": { "osmid": "506262679", "amenity": "bicycle_rental", "capacity": null, "name": "My Beautiful Parking", "network": null }, "geometry": { "type": "Point", "coordinates": [ 2.1773769, 41.381257 ] } },
{ "type": "Feature", "properties": { "osmid": "530729397", "amenity": "bicycle_rental", "capacity": "19", "name": "224 - Bailèn 158", "network": "bicing" }, "geometry": { "type": "Point", "coordinates": [ 2.1667112, 41.3999573 ] } },
{ "type": "Feature", "properties": { "osmid": "530729404", "amenity": "bicycle_rental", "capacity": "20", "name": "29 - Provença - Roger de Flor", "network": "bicing" }, "geometry": { "type": "Point", "coordinates": [ 2.1643428, 41.3967345 ] } },
{ "type": "Feature", "properties": { "osmid": "530729467", "amenity": "bicycle_rental", "capacity": "19", "name": "71 - Floridablanca 145", "network": "bicing" }, "geometry": { "type": "Point", "coordinates": [ 2.162996, 41.3819452 ] } },
{ "type": "Feature", "properties": { "osmid": "530969566", "amenity": "bicycle_rental", "capacity": "22", "name": "188 - Pl. Sants (Ps. S. Antoni) 0", "network": "bicing" }, "geometry": { "type": "Point", "coordinates": [ 2.13561, 41.3755856 ] } },
{ "type": "Feature", "properties": { "osmid": "533983100", "amenity": "bicycle_rental", "capacity": null, "name": null, "network": null }, "geometry": { "type": "Point", "coordinates": [ 2.1328528, 41.3799482 ] } },
{ "type": "Feature", "properties": { "osmid": "704038070", "amenity": "bicycle_rental", "capacity": "32", "name": "395 - Pl. Catalunya 22", "network": "bicing" }, "geometry": { "type": "Point", "coordinates": [ 2.1702543, 41.3860517 ] } },
{ "type": "Feature", "properties": { "osmid": "704066551", "amenity": "bicycle_rental", "capacity": "27", "name": "61 - Rambla Catalunya 42", "network": "bicing" }, "geometry": { "type": "Point", "coordinates": [ 2.1650793, 41.3900629 ] } },
{ "type": "Feature", "properties": { "osmid": "793017247", "amenity": "bicycle_rental", "capacity": "21", "name": "48 - Meridiana 40", "network": "bicing" }, "geometry": { "type": "Point", "coordinates": [ 2.1870593, 41.3961314 ] } },
{ "type": "Feature", "properties": { "osmid": "907524785", "amenity": "bicycle_rental", "capacity": "29", "name": "229 - Carrer de la Santacreu 2", "network": "bicing" }, "geometry": { "type": "Point", "coordinates": [ 2.156902, 41.4050758 ] } },
{ "type": "Feature", "properties": { "osmid": "964821545", "amenity": "bicycle_rental", "capacity": "26", "name": "309 - Sant Ramón Nonat 26", "network": "bicing" }, "geometry": { "type": "Point", "coordinates": [ 2.1168979, 41.3769517 ] } },
{ "type": "Feature", "properties": { "osmid": "964822575", "amenity": "bicycle_rental", "capacity": "26", "name": "308 - Cardenal Reig 11", "network": "bicing" }, "geometry": { "type": "Point", "coordinates": [ 2.1138796, 41.3768611 ] } },
{ "type": "Feature", "properties": { "osmid": "964823511", "amenity": "bicycle_rental", "capacity": "33", "name": "307 - Pintor Ribalta", "network": "bicing" }, "geometry": { "type": "Point", "coordinates": [ 2.1134719, 41.3791555 ] } },
{ "type": "Feature", "properties": { "osmid": "1043786356", "amenity": "bicycle_rental", "capacity": "17", "name": "187 - Carrer de Sant Pau 89", "network": "bicing" }, "geometry": { "type": "Point", "coordinates": [ 2.1697812, 41.376807 ] } },
{ "type": "Feature", "properties": { "osmid": "1297363559", "amenity": "bicycle_rental", "capacity": "22", "name": "93 - Gran Via 375", "network": "bicing" }, "geometry": { "type": "Point", "coordinates": [ 2.1497793, 41.3754604 ] } },
{ "type": "Feature", "properties": { "osmid": "1297428829", "amenity": "bicycle_rental", "capacity": "32", "name": "160 - Avda. d'Eduard Maristany 1", "network": "bicing" }, "geometry": { "type": "Point", "coordinates": [ 2.2193857, 41.4110327 ] } },
{ "type": "Feature", "properties": { "osmid": "1332224914", "amenity": "bicycle_rental", "capacity": null, "name": null, "network": null }, "geometry": { "type": "Point", "coordinates": [ 2.1887124, 41.3774399 ] } },
{ "type": "Feature", "properties": { "osmid": "1430547841", "amenity": "bicycle_rental", "capacity": null, "name": null, "network": null }, "geometry": { "type": "Point", "coordinates": [ 2.1847704, 41.382731 ] } },
{ "type": "Feature", "properties": { "osmid": "1474043727", "amenity": "bicycle_rental", "capacity": "25", "name": "310 - Josep Samitier", "network": "bicing" }, "geometry": { "type": "Point", "coordinates": [ 2.1191028, 41.3812078 ] } },
{ "type": "Feature", "properties": { "osmid": "1502956402", "amenity": "bicycle_rental", "capacity": "19", "name": "106 - Pl. Joanic s\/n", "network": "bicing" }, "geometry": { "type": "Point", "coordinates": [ 2.1623217, 41.4056261 ] } },
{ "type": "Feature", "properties": { "osmid": "1586817840", "amenity": "bicycle_rental", "capacity": "25", "name": "199 - Mejía Lequerica 2", "network": "bicing" }, "geometry": { "type": "Point", "coordinates": [ 2.126871, 41.3818923 ] } },
{ "type": "Feature", "properties": { "osmid": "1625206541", "amenity": "bicycle_rental", "capacity": "26", "name": "308 - Cardenal Reig 11", "network": "bicing" }, "geometry": { "type": "Point", "coordinates": [ 2.176902, 41.4316353 ] } },
{ "type": "Feature", "properties": { "osmid": "1719727394", "amenity": "bicycle_rental", "capacity": "30", "name": "95 - Tarragona 103", "network": "bicing" }, "geometry": { "type": "Point", "coordinates": [ 2.1475395, 41.3764578 ] } },
{ "type": "Feature", "properties": { "osmid": "1719727407", "amenity": "bicycle_rental", "capacity": "20", "name": "99 - Viriat 53", "network": "bicing" }, "geometry": { "type": "Point", "coordinates": [ 2.141267, 41.3805935 ] } },
{ "type": "Feature", "properties": { "osmid": "1719727410", "amenity": "bicycle_rental", "capacity": "20", "name": "100 - Tarragona 159", "network": "bicing" }, "geometry": { "type": "Point", "coordinates": [ 2.1442855, 41.3789637 ] } },
{ "type": "Feature", "properties": { "osmid": "1719727422", "amenity": "bicycle_rental", "capacity": "21", "name": "97 - Tarragona 141", "network": "bicing" }, "geometry": { "type": "Point", "coordinates": [ 2.145402, 41.378123 ] } },
{ "type": "Feature", "properties": { "osmid": "1720689746", "amenity": "bicycle_rental", "capacity": "22", "name": "50 - Av. Paral·lel 54", "network": "bicing" }, "geometry": { "type": "Point", "coordinates": [ 2.1705065, 41.3750434 ] } },
{ "type": "Feature", "properties": { "osmid": "1727175387", "amenity": "bicycle_rental", "capacity": "27", "name": "244 - Felip II 214", "network": "bicing" }, "geometry": { "type": "Point", "coordinates": [ 2.1783871, 41.4269344 ] } },
{ "type": "Feature", "properties": { "osmid": "1744470971", "amenity": "bicycle_rental", "capacity": "26", "name": "131 - Rambla Guipúscoa 158", "network": "bicing" }, "geometry": { "type": "Point", "coordinates": [ 2.2059773, 41.4228062 ] } },
{ "type": "Feature", "properties": { "osmid": "1867549305", "amenity": "bicycle_rental", "capacity": "27", "name": "363 - Bruc 20", "network": "bicing" }, "geometry": { "type": "Point", "coordinates": [ 2.1744214, 41.3907998 ] } },
{ "type": "Feature", "properties": { "osmid": "1867549308", "amenity": "bicycle_rental", "capacity": "26", "name": "23 - Bruc 45", "network": "bicing" }, "geometry": { "type": "Point", "coordinates": [ 2.168373, 41.3952902 ] } },
{ "type": "Feature", "properties": { "osmid": "1867549334", "amenity": "bicycle_rental", "capacity": "33", "name": "362 - Bailén 100", "network": "bicing" }, "geometry": { "type": "Point", "coordinates": [ 2.1706395, 41.3969852 ] } },
{ "type": "Feature", "properties": { "osmid": "1867549338", "amenity": "bicycle_rental", "capacity": "21", "name": "123 - Girona 126", "network": "bicing" }, "geometry": { "type": "Point", "coordinates": [ 2.1678393, 41.3974077 ] } },
{ "type": "Feature", "properties": { "osmid": "1867549341", "amenity": "bicycle_rental", "capacity": "20", "name": "36 - Catedral 6", "network": "bicing" }, "geometry": { "type": "Point", "coordinates": [ 2.177978, 41.3842396 ] } },
{ "type": "Feature", "properties": { "osmid": "1867549345", "amenity": "bicycle_rental", "capacity": "26", "name": "8 - Pg Lluís Companys", "network": "bicing" }, "geometry": { "type": "Point", "coordinates": [ 2.183498, 41.3890854 ] } },
{ "type": "Feature", "properties": { "osmid": "1867549348", "amenity": "bicycle_rental", "capacity": "27", "name": "227 - Torrent de Les Flors 102", "network": "bicing" }, "geometry": { "type": "Point", "coordinates": [ 2.1585186, 41.4078735 ] } },
{ "type": "Feature", "properties": { "osmid": "1867549351", "amenity": "bicycle_rental", "capacity": "25", "name": "390 - Comerç 36", "network": "bicing" }, "geometry": { "type": "Point", "coordinates": [ 2.1819641, 41.3869038 ] } },
{ "type": "Feature", "properties": { "osmid": "1867549370", "amenity": "bicycle_rental", "capacity": "22", "name": "222 - Carrer del Canó 1", "network": "bicing" }, "geometry": { "type": "Point", "coordinates": [ 2.1573089, 41.4014156 ] } },
{ "type": "Feature", "properties": { "osmid": "1867549376", "amenity": "bicycle_rental", "capacity": "17", "name": "9 - Marquès de l'Argentera", "network": "bicing" }, "geometry": { "type": "Point", "coordinates": [ 2.1853487, 41.3852458 ] } },
{ "type": "Feature", "properties": { "osmid": "1867549380", "amenity": "bicycle_rental", "capacity": "25", "name": "360 - Bailén 62", "network": "bicing" }, "geometry": { "type": "Point", "coordinates": [ 2.1729623, 41.3952669 ] } },
{ "type": "Feature", "properties": { "osmid": "1867549383", "amenity": "bicycle_rental", "capacity": "25", "name": "189 - Bruc 130", "network": "bicing" }, "geometry": { "type": "Point", "coordinates": [ 2.1661495, 41.3969731 ] } },
{ "type": "Feature", "properties": { "osmid": "1867549385", "amenity": "bicycle_rental", "capacity": "21", "name": "123 - Girona 126", "network": "bicing" }, "geometry": { "type": "Point", "coordinates": [ 2.1706366, 41.39524 ] } },
{ "type": "Feature", "properties": { "osmid": "1867549388", "amenity": "bicycle_rental", "capacity": "29", "name": "414 - Casp 67", "network": "bicing" }, "geometry": { "type": "Point", "coordinates": [ 2.1764258, 41.3937578 ] } },
{ "type": "Feature", "properties": { "osmid": "1867549393", "amenity": "bicycle_rental", "capacity": "21", "name": "228 - Pl. Del Nord 5", "network": "bicing" }, "geometry": { "type": "Point", "coordinates": [ 2.1557854, 41.406944 ] } },
{ "type": "Feature", "properties": { "osmid": "1867549415", "amenity": "bicycle_rental", "capacity": "19", "name": "115 - Marqués d'Argentera 3", "network": "bicing" }, "geometry": { "type": "Point", "coordinates": [ 2.183777, 41.3833662 ] } },
{ "type": "Feature", "properties": { "osmid": "1867549418", "amenity": "bicycle_rental", "capacity": "24", "name": "492 - Pl. de Tetuan 8-9", "network": "bicing" }, "geometry": { "type": "Point", "coordinates": [ 2.1751617, 41.3942125 ] } },
{ "type": "Feature", "properties": { "osmid": "1867549422", "amenity": "bicycle_rental", "capacity": "22", "name": "37 - Pl. Antonio López", "network": "bicing" }, "geometry": { "type": "Point", "coordinates": [ 2.1819102, 41.3812813 ] } },
{ "type": "Feature", "properties": { "osmid": "1867549424", "amenity": "bicycle_rental", "capacity": "26", "name": "412 - Pl. Urquinaona 3", "network": "bicing" }, "geometry": { "type": "Point", "coordinates": [ 2.1727692, 41.3890894 ] } },
{ "type": "Feature", "properties": { "osmid": "1867549430", "amenity": "bicycle_rental", "capacity": "26", "name": "23 - Bruc 45", "network": "bicing" }, "geometry": { "type": "Point", "coordinates": [ 2.1717821, 41.3927477 ] } },
{ "type": "Feature", "properties": { "osmid": "1867549435", "amenity": "bicycle_rental", "capacity": "27", "name": "7 - Pg Lluís Companys", "network": "bicing" }, "geometry": { "type": "Point", "coordinates": [ 2.1832674, 41.3889043 ] } },
{ "type": "Feature", "properties": { "osmid": "1867549461", "amenity": "bicycle_rental", "capacity": "21", "name": "413 - Bruc 66", "network": "bicing" }, "geometry": { "type": "Point", "coordinates": [ 2.1706181, 41.3935646 ] } },
{ "type": "Feature", "properties": { "osmid": "1867549474", "amenity": "bicycle_rental", "capacity": "27", "name": "226 - Montmany 1", "network": "bicing" }, "geometry": { "type": "Point", "coordinates": [ 2.1609836, 41.4034978 ] } },
{ "type": "Feature", "properties": { "osmid": "1867549482", "amenity": "bicycle_rental", "capacity": "20", "name": "36 - Catedral 6", "network": "bicing" }, "geometry": { "type": "Point", "coordinates": [ 2.176807, 41.385153 ] } },
{ "type": "Feature", "properties": { "osmid": "1867549492", "amenity": "bicycle_rental", "capacity": "27", "name": "358 - Gombau 24", "network": "bicing" }, "geometry": { "type": "Point", "coordinates": [ 2.1792548, 41.3871898 ] } },
{ "type": "Feature", "properties": { "osmid": "1867549495", "amenity": "bicycle_rental", "capacity": "20", "name": "14 - Avinguda del Marques Argentera 19", "network": "bicing" }, "geometry": { "type": "Point", "coordinates": [ 2.1852146, 41.3850889 ] } },
{ "type": "Feature", "properties": { "osmid": "1867549498", "amenity": "bicycle_rental", "capacity": "20", "name": "108 - Indústria 10", "network": "bicing" }, "geometry": { "type": "Point", "coordinates": [ 2.1649365, 41.4023451 ] } },
{ "type": "Feature", "properties": { "osmid": "1886635520", "amenity": "bicycle_rental", "capacity": "27", "name": "72 - Rosselló 217", "network": "bicing" }, "geometry": { "type": "Point", "coordinates": [ 2.1569775, 41.3930435 ] } },
{ "type": "Feature", "properties": { "osmid": "1938341162", "amenity": "bicycle_rental", "capacity": "26", "name": "316 - Cantàbria 55", "network": "bicing" }, "geometry": { "type": "Point", "coordinates": [ 2.1983076, 41.4222223 ] } },
{ "type": "Feature", "properties": { "osmid": "1948991828", "amenity": "bicycle_rental", "capacity": "34", "name": "47 - Ramon Trias Fargas", "network": "bicing" }, "geometry": { "type": "Point", "coordinates": [ 2.1918123, 41.3893134 ] } },
{ "type": "Feature", "properties": { "osmid": "1948992533", "amenity": "bicycle_rental", "capacity": "36", "name": "408 - Ramon Trias Fargas - Villena", "network": "bicing" }, "geometry": { "type": "Point", "coordinates": [ 2.1923326, 41.3885568 ] } },
{ "type": "Feature", "properties": { "osmid": "1948993201", "amenity": "bicycle_rental", "capacity": "21", "name": "392 - Ramon Turró 4", "network": "bicing" }, "geometry": { "type": "Point", "coordinates": [ 2.1906375, 41.3907019 ] } },
{ "type": "Feature", "properties": { "osmid": "2125253793", "amenity": "bicycle_rental", "capacity": "22", "name": "130 - Rambla Guipúscoa 103", "network": "bicing" }, "geometry": { "type": "Point", "coordinates": [ 2.2016269, 41.419954 ] } },
{ "type": "Feature", "properties": { "osmid": "2125254429", "amenity": "bicycle_rental", "capacity": "26", "name": "317 - Rambla Prim 256", "network": "bicing" }, "geometry": { "type": "Point", "coordinates": [ 2.2005582, 41.4256353 ] } },
{ "type": "Feature", "properties": { "osmid": "2187272329", "amenity": "bicycle_rental", "capacity": "27", "name": "143 - C\/ Sancho de Ávila 170 \/ Llacuna", "network": "bicing" }, "geometry": { "type": "Point", "coordinates": [ 2.1958373, 41.4030089 ] } },
{ "type": "Feature", "properties": { "osmid": "2197837744", "amenity": "bicycle_rental", "capacity": "33", "name": "393 - C\/ Llacuna 86", "network": "bicing" }, "geometry": { "type": "Point", "coordinates": [ 2.1976058, 41.4021591 ] } },
{ "type": "Feature", "properties": { "osmid": "2281830762", "amenity": "bicycle_rental", "capacity": "22", "name": "353 - Munné 6", "network": "bicing" }, "geometry": { "type": "Point", "coordinates": [ 2.1232552, 41.3755064 ] } },
{ "type": "Feature", "properties": { "osmid": "2281830763", "amenity": "bicycle_rental", "capacity": "27", "name": "306 - Doctor Salvador Cardenal 7", "network": "bicing" }, "geometry": { "type": "Point", "coordinates": [ 2.1231023, 41.3854988 ] } },
{ "type": "Feature", "properties": { "osmid": "2281836144", "amenity": "bicycle_rental", "capacity": "30", "name": "204 - Avda. Diagonal 668", "network": "bicing" }, "geometry": { "type": "Point", "coordinates": [ 2.1256564, 41.3880082 ] } },
{ "type": "Feature", "properties": { "osmid": "2281836145", "amenity": "bicycle_rental", "capacity": "24", "name": "305 - Diagonal 680", "network": "bicing" }, "geometry": { "type": "Point", "coordinates": [ 2.1236662, 41.3875011 ] } },
{ "type": "Feature", "properties": { "osmid": "2281838582", "amenity": "bicycle_rental", "capacity": "33", "name": "203 - Avda. Diagonal 664", "network": "bicing" }, "geometry": { "type": "Point", "coordinates": [ 2.1285798, 41.3886968 ] } },
{ "type": "Feature", "properties": { "osmid": "2281886334", "amenity": "bicycle_rental", "capacity": "27", "name": "302 - Cavallers 41", "network": "bicing" }, "geometry": { "type": "Point", "coordinates": [ 2.1116041, 41.3906082 ] } },
{ "type": "Feature", "properties": { "osmid": "2281886336", "amenity": "bicycle_rental", "capacity": "30", "name": "304 - Manuel Girona 7", "network": "bicing" }, "geometry": { "type": "Point", "coordinates": [ 2.1209971, 41.3902031 ] } },
{ "type": "Feature", "properties": { "osmid": "2281894239", "amenity": "bicycle_rental", "capacity": "27", "name": "303 - Cavallers 67", "network": "bicing" }, "geometry": { "type": "Point", "coordinates": [ 2.1148897, 41.3930769 ] } },
{ "type": "Feature", "properties": { "osmid": "2281899987", "amenity": "bicycle_rental", "capacity": "24", "name": "193 - Figols 1", "network": "bicing" }, "geometry": { "type": "Point", "coordinates": [ 2.1289198, 41.3812967 ] } },
{ "type": "Feature", "properties": { "osmid": "2281906702", "amenity": "bicycle_rental", "capacity": "24", "name": "354 - Rambla del Brasil 5", "network": "bicing" }, "geometry": { "type": "Point", "coordinates": [ 2.1301728, 41.3758108 ] } },
{ "type": "Feature", "properties": { "osmid": "2281906704", "amenity": "bicycle_rental", "capacity": "26", "name": "313 - Rambla Badal 184", "network": "bicing" }, "geometry": { "type": "Point", "coordinates": [ 2.1310146, 41.3746449 ] } },
{ "type": "Feature", "properties": { "osmid": "2281906705", "amenity": "bicycle_rental", "capacity": "22", "name": "314 - Rambla del Brasil 44", "network": "bicing" }, "geometry": { "type": "Point", "coordinates": [ 2.1297384, 41.3782495 ] } },
{ "type": "Feature", "properties": { "osmid": "2281906710", "amenity": "bicycle_rental", "capacity": "26", "name": "355 - Carreras i Candi 89", "network": "bicing" }, "geometry": { "type": "Point", "coordinates": [ 2.1294939, 41.3725213 ] } },
{ "type": "Feature", "properties": { "osmid": "2360847336", "amenity": "bicycle_rental", "capacity": null, "name": "Green Bikes", "network": null }, "geometry": { "type": "Point", "coordinates": [ 2.1775458, 41.3803465 ] } },
{ "type": "Feature", "properties": { "osmid": "2408093565", "amenity": "bicycle_rental", "capacity": "33", "name": "211 - Sancho de Ávila 60", "network": "bicing" }, "geometry": { "type": "Point", "coordinates": [ 2.1902198, 41.3988206 ] } },
{ "type": "Feature", "properties": { "osmid": "2434563718", "amenity": "bicycle_rental", "capacity": "24", "name": "493 - Pl. Sant Miquel 4", "network": "bicing" }, "geometry": { "type": "Point", "coordinates": [ 2.177441, 41.3817497 ] } },
{ "type": "Feature", "properties": { "osmid": "2434563721", "amenity": "bicycle_rental", "capacity": "13", "name": "379 - Pl. Sant Miquel 4", "network": "bicing" }, "geometry": { "type": "Point", "coordinates": [ 2.1773258, 41.3816699 ] } },
{ "type": "Feature", "properties": { "osmid": "2434563722", "amenity": "bicycle_rental", "capacity": "20", "name": "378 - Pl. Joaquim Xira i Palau 1", "network": "bicing" }, "geometry": { "type": "Point", "coordinates": [ 2.1767874, 41.3785508 ] } },
{ "type": "Feature", "properties": { "osmid": "2434567105", "amenity": "bicycle_rental", "capacity": "21", "name": "402 - Passeig de Colom", "network": "bicing" }, "geometry": { "type": "Point", "coordinates": [ 2.182227, 41.3805937 ] } },
{ "type": "Feature", "properties": { "osmid": "2440208126", "amenity": "bicycle_rental", "capacity": "27", "name": "57 - La Rambla 2", "network": "bicing" }, "geometry": { "type": "Point", "coordinates": [ 2.177052, 41.376809 ] } },
{ "type": "Feature", "properties": { "osmid": "2443607899", "amenity": "bicycle_rental", "capacity": "23", "name": "78 - Pl. Universitat", "network": "bicing" }, "geometry": { "type": "Point", "coordinates": [ 2.1636356, 41.3857996 ] } },
{ "type": "Feature", "properties": { "osmid": "2443614596", "amenity": "bicycle_rental", "capacity": "26", "name": "388 - Riera Alta 6", "network": "bicing" }, "geometry": { "type": "Point", "coordinates": [ 2.1673843, 41.3805894 ] } },
{ "type": "Feature", "properties": { "osmid": "2467767352", "amenity": "bicycle_rental", "capacity": "33", "name": "251 - Cardenal Tedeschini 13", "network": "bicing" }, "geometry": { "type": "Point", "coordinates": [ 2.1852922, 41.4253442 ] } },
{ "type": "Feature", "properties": { "osmid": "2469174885", "amenity": "bicycle_rental", "capacity": null, "name": null, "network": null }, "geometry": { "type": "Point", "coordinates": [ 2.1851907, 41.3939083 ] } },
{ "type": "Feature", "properties": { "osmid": "2553364901", "amenity": "bicycle_rental", "capacity": "22", "name": "165 - Carrer del Doctor Trueta 221", "network": "bicing" }, "geometry": { "type": "Point", "coordinates": [ 2.204263, 41.399199 ] } },
{ "type": "Feature", "properties": { "osmid": "2572157092", "amenity": "bicycle_rental", "capacity": null, "name": null, "network": null }, "geometry": { "type": "Point", "coordinates": [ 2.1883302, 41.3786248 ] } },
{ "type": "Feature", "properties": { "osmid": "2745572518", "amenity": "bicycle_rental", "capacity": "27", "name": "335 - Santa Amèlia 2", "network": "bicing" }, "geometry": { "type": "Point", "coordinates": [ 2.1231775, 41.3935976 ] } },
{ "type": "Feature", "properties": { "osmid": "2764698189", "amenity": "bicycle_rental", "capacity": "25", "name": "382 - Lope de Vega 79", "network": "bicing" }, "geometry": { "type": "Point", "coordinates": [ 2.2041266, 41.4039469 ] } },
{ "type": "Feature", "properties": { "osmid": "2764698194", "amenity": "bicycle_rental", "capacity": "27", "name": "339 - Bilbao 51", "network": "bicing" }, "geometry": { "type": "Point", "coordinates": [ 2.2037624, 41.4026228 ] } },
{ "type": "Feature", "properties": { "osmid": "2764698200", "amenity": "bicycle_rental", "capacity": "27", "name": "154 - C\/ Pujades 191", "network": "bicing" }, "geometry": { "type": "Point", "coordinates": [ 2.2015745, 41.4024162 ] } },
{ "type": "Feature", "properties": { "osmid": "2764698204", "amenity": "bicycle_rental", "capacity": "27", "name": "153 - C\/ Pujades 173 \/ Rambla del Poble Nou", "network": "bicing" }, "geometry": { "type": "Point", "coordinates": [ 2.2008143, 41.4018308 ] } },
{ "type": "Feature", "properties": { "osmid": "2764872573", "amenity": "bicycle_rental", "capacity": "33", "name": "155 - Pujades 311", "network": "bicing" }, "geometry": { "type": "Point", "coordinates": [ 2.2074864, 41.4068642 ] } },
{ "type": "Feature", "properties": { "osmid": "2764872584", "amenity": "bicycle_rental", "capacity": "26", "name": "150 - Espronceda 124", "network": "bicing" }, "geometry": { "type": "Point", "coordinates": [ 2.2030354, 41.4065817 ] } },
{ "type": "Feature", "properties": { "osmid": "2764872588", "amenity": "bicycle_rental", "capacity": "23", "name": "144 - Castella 28", "network": "bicing" }, "geometry": { "type": "Point", "coordinates": [ 2.1976011, 41.4056225 ] } },
{ "type": "Feature", "properties": { "osmid": "2764872597", "amenity": "bicycle_rental", "capacity": "21", "name": "286 - Bolívia 76", "network": "bicing" }, "geometry": { "type": "Point", "coordinates": [ 2.1914096, 41.4031008 ] } },
{ "type": "Feature", "properties": { "osmid": "2827630926", "amenity": "bicycle_rental", "capacity": "20", "name": "96 - Gran Via 361", "network": "bicing" }, "geometry": { "type": "Point", "coordinates": [ 2.1481183, 41.3741283 ] } },
{ "type": "Feature", "properties": { "osmid": "2827630927", "amenity": "bicycle_rental", "capacity": "21", "name": "420 - Gran Via 361", "network": "bicing" }, "geometry": { "type": "Point", "coordinates": [ 2.1480402, 41.374194 ] } },
{ "type": "Feature", "properties": { "osmid": "2879016208", "amenity": "bicycle_rental", "capacity": "28", "name": "381 - Agustí Duran i Sanpere 10", "network": "bicing" }, "geometry": { "type": "Point", "coordinates": [ 2.1677878, 41.3815989 ] } },
{ "type": "Feature", "properties": { "osmid": "2926137672", "amenity": "bicycle_rental", "capacity": "32", "name": "371 - Carrer dels Enamorats 49", "network": "bicing" }, "geometry": { "type": "Point", "coordinates": [ 2.1812846, 41.4040651 ] } },
{ "type": "Feature", "properties": { "osmid": "2926137673", "amenity": "bicycle_rental", "capacity": "27", "name": "218 - Consell de Cent 566", "network": "bicing" }, "geometry": { "type": "Point", "coordinates": [ 2.1831675, 41.4041023 ] } },
{ "type": "Feature", "properties": { "osmid": "2926145100", "amenity": "bicycle_rental", "capacity": "20", "name": "30 - Diagonal 231", "network": "bicing" }, "geometry": { "type": "Point", "coordinates": [ 2.1822385, 41.4020721 ] } },
{ "type": "Feature", "properties": { "osmid": "2926146101", "amenity": "bicycle_rental", "capacity": "16", "name": "26 - Dos Maig 230", "network": "bicing" }, "geometry": { "type": "Point", "coordinates": [ 2.181981, 41.407035 ] } },
{ "type": "Feature", "properties": { "osmid": "2926146102", "amenity": "bicycle_rental", "capacity": "26", "name": "43 - Av Meridiana 80", "network": "bicing" }, "geometry": { "type": "Point", "coordinates": [ 2.1871426, 41.4053189 ] } },
{ "type": "Feature", "properties": { "osmid": "2926146103", "amenity": "bicycle_rental", "capacity": "19", "name": "44 - Avinguda Meridiana (Metro Glòries)", "network": "bicing" }, "geometry": { "type": "Point", "coordinates": [ 2.1871532, 41.4021319 ] } },
{ "type": "Feature", "properties": { "osmid": "2965670779", "amenity": "bicycle_rental", "capacity": "21", "name": "340 - Carrer Sant Adrià 113", "network": "bicing" }, "geometry": { "type": "Point", "coordinates": [ 2.2047235, 41.4361833 ] } },
{ "type": "Feature", "properties": { "osmid": "2965670780", "amenity": "bicycle_rental", "capacity": "27", "name": "341 - Passeig Enric Sanchís 33", "network": "bicing" }, "geometry": { "type": "Point", "coordinates": [ 2.205886, 41.434191 ] } },
{ "type": "Feature", "properties": { "osmid": "3068103250", "amenity": "bicycle_rental", "capacity": "21", "name": "73 - C\/ Enric Granados 99", "network": "bicing" }, "geometry": { "type": "Point", "coordinates": [ 2.1557873, 41.392788 ] } },
{ "type": "Feature", "properties": { "osmid": "3068103251", "amenity": "bicycle_rental", "capacity": "30", "name": "246 - Juan de Garay 116", "network": "bicing" }, "geometry": { "type": "Point", "coordinates": [ 2.1857302, 41.4227723 ] } },
{ "type": "Feature", "properties": { "osmid": "3068103252", "amenity": "bicycle_rental", "capacity": "18", "name": "92 - C\/ Provença 241", "network": "bicing" }, "geometry": { "type": "Point", "coordinates": [ 2.1602356, 41.3938589 ] } },
{ "type": "Feature", "properties": { "osmid": "3068103256", "amenity": "bicycle_rental", "capacity": "15", "name": "287 - Gran Via de les Corts Catalanes 632", "network": "bicing" }, "geometry": { "type": "Point", "coordinates": [ 2.1680259, 41.3891155 ] } },
{ "type": "Feature", "properties": { "osmid": "3068367472", "amenity": "bicycle_rental", "capacity": "21", "name": "103 - C\/ Aragó 629", "network": "bicing" }, "geometry": { "type": "Point", "coordinates": [ 2.1880316, 41.409721 ] } },
{ "type": "Feature", "properties": { "osmid": "3068367479", "amenity": "bicycle_rental", "capacity": "21", "name": "135 - Gran Via de les Corts Catalanes 981", "network": "bicing" }, "geometry": { "type": "Point", "coordinates": [ 2.19785, 41.4119062 ] } },
{ "type": "Feature", "properties": { "osmid": "3074770050", "amenity": "bicycle_rental", "capacity": "20", "name": "70 - Villarroel 2", "network": "bicing" }, "geometry": { "type": "Point", "coordinates": [ 2.1617874, 41.3813559 ] } },
{ "type": "Feature", "properties": { "osmid": "3074770051", "amenity": "bicycle_rental", "capacity": "24", "name": "261 - Villarroel 39", "network": "bicing" }, "geometry": { "type": "Point", "coordinates": [ 2.1605841, 41.3822958 ] } },
{ "type": "Feature", "properties": { "osmid": "3074770053", "amenity": "bicycle_rental", "capacity": "28", "name": "91 - Comte Borrell 119", "network": "bicing" }, "geometry": { "type": "Point", "coordinates": [ 2.1583715, 41.3804883 ] } },
{ "type": "Feature", "properties": { "osmid": "3074775713", "amenity": "bicycle_rental", "capacity": "22", "name": "3 - Ali Bei", "network": "bicing" }, "geometry": { "type": "Point", "coordinates": [ 2.1811285, 41.393686 ] } },
{ "type": "Feature", "properties": { "osmid": "3074775714", "amenity": "bicycle_rental", "capacity": "18", "name": "119 - Sardenya 178", "network": "bicing" }, "geometry": { "type": "Point", "coordinates": [ 2.1828015, 41.3966442 ] } },
{ "type": "Feature", "properties": { "osmid": "3074791954", "amenity": "bicycle_rental", "capacity": "29", "name": "385 - Casanova 119", "network": "bicing" }, "geometry": { "type": "Point", "coordinates": [ 2.1552828, 41.3879654 ] } },
{ "type": "Feature", "properties": { "osmid": "3074791955", "amenity": "bicycle_rental", "capacity": "33", "name": "76 - Còrsega 216", "network": "bicing" }, "geometry": { "type": "Point", "coordinates": [ 2.1531942, 41.3917896 ] } },
{ "type": "Feature", "properties": { "osmid": "3076806998", "amenity": "bicycle_rental", "capacity": "18", "name": "40 - Doctor Aiguader 2", "network": "bicing" }, "geometry": { "type": "Point", "coordinates": [ 2.1862762, 41.3822484 ] } },
{ "type": "Feature", "properties": { "osmid": "3076806999", "amenity": "bicycle_rental", "capacity": "21", "name": "39 - Pl. Pau Vila", "network": "bicing" }, "geometry": { "type": "Point", "coordinates": [ 2.1865682, 41.3810415 ] } },
{ "type": "Feature", "properties": { "osmid": "3076807000", "amenity": "bicycle_rental", "capacity": "20", "name": "38 - Pl. Pau Vila", "network": "bicing" }, "geometry": { "type": "Point", "coordinates": [ 2.1863771, 41.3811265 ] } },
{ "type": "Feature", "properties": { "osmid": "3076807001", "amenity": "bicycle_rental", "capacity": "19", "name": "41 - Pl. Poeta Boscà\/Atlàntida", "network": "bicing" }, "geometry": { "type": "Point", "coordinates": [ 2.1898197, 41.3793434 ] } },
{ "type": "Feature", "properties": { "osmid": "3076807002", "amenity": "bicycle_rental", "capacity": "27", "name": "116 - Salvat Papasseit 72", "network": "bicing" }, "geometry": { "type": "Point", "coordinates": [ 2.1916366, 41.3837434 ] } },
{ "type": "Feature", "properties": { "osmid": "3230100316", "amenity": "bicycle_rental", "capacity": "24", "name": "210 - Vilardell 18", "network": "bicing" }, "geometry": { "type": "Point", "coordinates": [ 2.1424471, 41.3745667 ] } },
{ "type": "Feature", "properties": { "osmid": "3362590018", "amenity": "bicycle_rental", "capacity": "25", "name": "370 - Sardenya 234", "network": "bicing" }, "geometry": { "type": "Point", "coordinates": [ 2.1730138, 41.4037095 ] } },
{ "type": "Feature", "properties": { "osmid": "3362590019", "amenity": "bicycle_rental", "capacity": "29", "name": "19 - Rosselló 354", "network": "bicing" }, "geometry": { "type": "Point", "coordinates": [ 2.1706934, 41.4033055 ] } },
{ "type": "Feature", "properties": { "osmid": "3398746182", "amenity": "bicycle_rental", "capacity": null, "name": null, "network": null }, "geometry": { "type": "Point", "coordinates": [ 2.1899321, 41.3754419 ] } },
{ "type": "Feature", "properties": { "osmid": "3509840955", "amenity": "bicycle_rental", "capacity": null, "name": "City00", "network": null }, "geometry": { "type": "Point", "coordinates": [ 2.1575515, 41.3992063 ] } },
{ "type": "Feature", "properties": { "osmid": "3566408059", "amenity": "bicycle_rental", "capacity": null, "name": "Bicirent", "network": null }, "geometry": { "type": "Point", "coordinates": [ 2.1679344, 41.3853061 ] } },
{ "type": "Feature", "properties": { "osmid": "3677359588", "amenity": "bicycle_rental", "capacity": "21", "name": "24 - Marina", "network": "bicing" }, "geometry": { "type": "Point", "coordinates": [ 2.1803087, 41.3999582 ] } },
{ "type": "Feature", "properties": { "osmid": "3702801392", "amenity": "bicycle_rental", "capacity": "20", "name": "29 - Provença 388", "network": "bicing" }, "geometry": { "type": "Point", "coordinates": [ 2.170108, 41.4011542 ] } },
{ "type": "Feature", "properties": { "osmid": "3702805946", "amenity": "bicycle_rental", "capacity": "23", "name": "231 - C. Del Secretari Coloma 59", "network": "bicing" }, "geometry": { "type": "Point", "coordinates": [ 2.1633006, 41.4091058 ] } },
{ "type": "Feature", "properties": { "osmid": "3702806797", "amenity": "bicycle_rental", "capacity": "27", "name": "356 - Balcells 48", "network": "bicing" }, "geometry": { "type": "Point", "coordinates": [ 2.1610904, 41.4110913 ] } },
{ "type": "Feature", "properties": { "osmid": "3702808723", "amenity": "bicycle_rental", "capacity": "26", "name": "276 - Plaça Alfons X el Savi \/ Ronda del Guinardó", "network": "bicing" }, "geometry": { "type": "Point", "coordinates": [ 2.1652507, 41.4121339 ] } },
{ "type": "Feature", "properties": { "osmid": "3704141771", "amenity": "bicycle_rental", "capacity": "32", "name": "326 - Castanyer 16", "network": "bicing" }, "geometry": { "type": "Point", "coordinates": [ 2.1377096, 41.407007 ] } },
{ "type": "Feature", "properties": { "osmid": "3704141772", "amenity": "bicycle_rental", "capacity": "23", "name": "327 - Reus 23", "network": "bicing" }, "geometry": { "type": "Point", "coordinates": [ 2.1346291, 41.4050878 ] } },
{ "type": "Feature", "properties": { "osmid": "3704141773", "amenity": "bicycle_rental", "capacity": "27", "name": "328 - Artesa de Segre 2", "network": "bicing" }, "geometry": { "type": "Point", "coordinates": [ 2.1344141, 41.4029468 ] } },
{ "type": "Feature", "properties": { "osmid": "3704165631", "amenity": "bicycle_rental", "capacity": "12", "name": "465 - (PK) Rda. del General Mitre 203", "network": "bicing" }, "geometry": { "type": "Point", "coordinates": [ 2.1424933, 41.4053036 ] } },
{ "type": "Feature", "properties": { "osmid": "3704165632", "amenity": "bicycle_rental", "capacity": "26", "name": "321 - Carrer de Pádua 98", "network": "bicing" }, "geometry": { "type": "Point", "coordinates": [ 2.1436232, 41.4039713 ] } },
{ "type": "Feature", "properties": { "osmid": "3704165634", "amenity": "bicycle_rental", "capacity": "22", "name": "322 - Santaló 165", "network": "bicing" }, "geometry": { "type": "Point", "coordinates": [ 2.1409357, 41.3994792 ] } },
{ "type": "Feature", "properties": { "osmid": "3704165635", "amenity": "bicycle_rental", "capacity": "27", "name": "323 - Vallmajor 13", "network": "bicing" }, "geometry": { "type": "Point", "coordinates": [ 2.1387014, 41.3980678 ] } },
{ "type": "Feature", "properties": { "osmid": "3704165636", "amenity": "bicycle_rental", "capacity": "12", "name": "457 - (PK) C\/ de Josep Balarí 2", "network": "bicing" }, "geometry": { "type": "Point", "coordinates": [ 2.1342811, 41.4013282 ] } },
{ "type": "Feature", "properties": { "osmid": "3704165637", "amenity": "bicycle_rental", "capacity": "26", "name": "330 - Doctor Carulla 44", "network": "bicing" }, "geometry": { "type": "Point", "coordinates": [ 2.1306574, 41.4005978 ] } },
{ "type": "Feature", "properties": { "osmid": "3704165638", "amenity": "bicycle_rental", "capacity": "26", "name": "332 - Doctor Roux 86", "network": "bicing" }, "geometry": { "type": "Point", "coordinates": [ 2.1280691, 41.3998434 ] } },
{ "type": "Feature", "properties": { "osmid": "3704165639", "amenity": "bicycle_rental", "capacity": "27", "name": "334 - Via Augusta 348", "network": "bicing" }, "geometry": { "type": "Point", "coordinates": [ 2.1233109, 41.4006622 ] } },
{ "type": "Feature", "properties": { "osmid": "3704165640", "amenity": "bicycle_rental", "capacity": "27", "name": "329 - Carrer de les Escoles Pies 99", "network": "bicing" }, "geometry": { "type": "Point", "coordinates": [ 2.1285117, 41.4029055 ] } },
{ "type": "Feature", "properties": { "osmid": "3704227055", "amenity": "bicycle_rental", "capacity": "20", "name": "107 - Travessera de Gracia 92", "network": "bicing" }, "geometry": { "type": "Point", "coordinates": [ 2.1531468, 41.3983448 ] } },
{ "type": "Feature", "properties": { "osmid": "3704227056", "amenity": "bicycle_rental", "capacity": "26", "name": "220 - Tuset 19", "network": "bicing" }, "geometry": { "type": "Point", "coordinates": [ 2.151227, 41.3964078 ] } },
{ "type": "Feature", "properties": { "osmid": "3704227057", "amenity": "bicycle_rental", "capacity": "26", "name": "219 - Carrer Laforja 74", "network": "bicing" }, "geometry": { "type": "Point", "coordinates": [ 2.1473228, 41.3976623 ] } },
{ "type": "Feature", "properties": { "osmid": "3704227058", "amenity": "bicycle_rental", "capacity": "27", "name": "216 - Madrazo 131", "network": "bicing" }, "geometry": { "type": "Point", "coordinates": [ 2.1445289, 41.3968097 ] } },
{ "type": "Feature", "properties": { "osmid": "3704227059", "amenity": "bicycle_rental", "capacity": "24", "name": "217 - Rector Ubach 24", "network": "bicing" }, "geometry": { "type": "Point", "coordinates": [ 2.1440139, 41.3984153 ] } },
{ "type": "Feature", "properties": { "osmid": "3704227060", "amenity": "bicycle_rental", "capacity": "27", "name": "319 - Amigó 23", "network": "bicing" }, "geometry": { "type": "Point", "coordinates": [ 2.1451914, 41.3947171 ] } },
{ "type": "Feature", "properties": { "osmid": "3704227061", "amenity": "bicycle_rental", "capacity": "23", "name": "215 - Ganduxer - Pl Sant Gregori Taumaturg", "network": "bicing" }, "geometry": { "type": "Point", "coordinates": [ 2.1381878, 41.3939473 ] } },
{ "type": "Feature", "properties": { "osmid": "3704227062", "amenity": "bicycle_rental", "capacity": "24", "name": "214 - José de Agulló 19", "network": "bicing" }, "geometry": { "type": "Point", "coordinates": [ 2.1350684, 41.3936851 ] } },
{ "type": "Feature", "properties": { "osmid": "3704227063", "amenity": "bicycle_rental", "capacity": "33", "name": "213 - Sant Fe de Nou Mèxic 2", "network": "bicing" }, "geometry": { "type": "Point", "coordinates": [ 2.1357154, 41.3924554 ] } },
{ "type": "Feature", "properties": { "osmid": "3704238765", "amenity": "bicycle_rental", "capacity": "23", "name": "325 - Alt de Gironella 13", "network": "bicing" }, "geometry": { "type": "Point", "coordinates": [ 2.1302837, 41.3949766 ] } },
{ "type": "Feature", "properties": { "osmid": "3704238766", "amenity": "bicycle_rental", "capacity": "23", "name": "331 - Castellnou 65", "network": "bicing" }, "geometry": { "type": "Point", "coordinates": [ 2.1279582, 41.3970893 ] } },
{ "type": "Feature", "properties": { "osmid": "3704238767", "amenity": "bicycle_rental", "capacity": "25", "name": "333 - Passatge de Senillosa 3", "network": "bicing" }, "geometry": { "type": "Point", "coordinates": [ 2.125056, 41.3956547 ] } },
{ "type": "Feature", "properties": { "osmid": "3704238769", "amenity": "bicycle_rental", "capacity": "33", "name": "338 - Avinguda de J. Foix 63", "network": "bicing" }, "geometry": { "type": "Point", "coordinates": [ 2.1194931, 41.3976165 ] } },
{ "type": "Feature", "properties": { "osmid": "3704238770", "amenity": "bicycle_rental", "capacity": "24", "name": "337 - Carme Karr 12", "network": "bicing" }, "geometry": { "type": "Point", "coordinates": [ 2.1204346, 41.3987452 ] } },
{ "type": "Feature", "properties": { "osmid": "3704239313", "amenity": "bicycle_rental", "capacity": "27", "name": "336 - Caponata 10", "network": "bicing" }, "geometry": { "type": "Point", "coordinates": [ 2.1210637, 41.3953184 ] } },
{ "type": "Feature", "properties": { "osmid": "3846678187", "amenity": "bicycle_rental", "capacity": null, "name": "Toubabike - rent scooter and bike", "network": null }, "geometry": { "type": "Point", "coordinates": [ 2.1708558, 41.3804096 ] } },
{ "type": "Feature", "properties": { "osmid": "3859729679", "amenity": "bicycle_rental", "capacity": "33", "name": "352 - Radi 10", "network": "bicing" }, "geometry": { "type": "Point", "coordinates": [ 2.1341538, 41.3632497 ] } },
{ "type": "Feature", "properties": { "osmid": "3859729745", "amenity": "bicycle_rental", "capacity": "31", "name": "345 - Pl. Teresa de Claramunt", "network": "bicing" }, "geometry": { "type": "Point", "coordinates": [ 2.1397729, 41.3631173 ] } },
{ "type": "Feature", "properties": { "osmid": "3859730269", "amenity": "bicycle_rental", "capacity": "30", "name": "351 - Jane Addams 26", "network": "bicing" }, "geometry": { "type": "Point", "coordinates": [ 2.1355835, 41.3622119 ] } },
{ "type": "Feature", "properties": { "osmid": "3859732557", "amenity": "bicycle_rental", "capacity": "33", "name": "349 - Carrer de l'Energia 2", "network": "bicing" }, "geometry": { "type": "Point", "coordinates": [ 2.1371604, 41.3573496 ] } },
{ "type": "Feature", "properties": { "osmid": "3859760369", "amenity": "bicycle_rental", "capacity": "26", "name": "184 - Quetzal 22", "network": "bicing" }, "geometry": { "type": "Point", "coordinates": [ 2.1342148, 41.3675587 ] } },
{ "type": "Feature", "properties": { "osmid": "3861209171", "amenity": "bicycle_rental", "capacity": "25", "name": "202 - Carrer de les Corts 20", "network": "bicing" }, "geometry": { "type": "Point", "coordinates": [ 2.1291476, 41.3844283 ] } },
{ "type": "Feature", "properties": { "osmid": "3861209680", "amenity": "bicycle_rental", "capacity": "31", "name": "205 - Europa 25", "network": "bicing" }, "geometry": { "type": "Point", "coordinates": [ 2.130946, 41.3874299 ] } },
{ "type": "Feature", "properties": { "osmid": "3873734724", "amenity": "bicycle_rental", "capacity": "25", "name": "161 - Ramon Turro 91", "network": "bicing" }, "geometry": { "type": "Point", "coordinates": [ 2.1964629, 41.3950989 ] } },
{ "type": "Feature", "properties": { "osmid": "3873734725", "amenity": "bicycle_rental", "capacity": "27", "name": "163 - Avda. Icaria 202", "network": "bicing" }, "geometry": { "type": "Point", "coordinates": [ 2.2007075, 41.3942437 ] } },
{ "type": "Feature", "properties": { "osmid": "3875306952", "amenity": "bicycle_rental", "capacity": "19", "name": "88 - Londres 101", "network": "bicing" }, "geometry": { "type": "Point", "coordinates": [ 2.1508157, 41.3935773 ] } },
{ "type": "Feature", "properties": { "osmid": "4113092274", "amenity": "bicycle_rental", "capacity": null, "name": "Rentabike Barcelona", "network": null }, "geometry": { "type": "Point", "coordinates": [ 2.1618574, 41.3997519 ] } },
{ "type": "Feature", "properties": { "osmid": "4133230989", "amenity": "bicycle_rental", "capacity": "19", "name": "122 - Nàpols 344", "network": "bicing" }, "geometry": { "type": "Point", "coordinates": [ 2.1661913, 41.4054196 ] } },
{ "type": "Feature", "properties": { "osmid": "4145205916", "amenity": "bicycle_rental", "capacity": "17", "name": "133 - Gran Vía 902", "network": "bicing" }, "geometry": { "type": "Point", "coordinates": [ 2.1927109, 41.407382 ] } },
{ "type": "Feature", "properties": { "osmid": "4154259468", "amenity": "bicycle_rental", "capacity": "28", "name": "141 - Gran Via 940", "network": "bicing" }, "geometry": { "type": "Point", "coordinates": [ 2.1947394, 41.4089124 ] } },
{ "type": "Feature", "properties": { "osmid": "4171790400", "amenity": "bicycle_rental", "capacity": null, "name": null, "network": null }, "geometry": { "type": "Point", "coordinates": [ 2.2111382, 41.4033597 ] } },
{ "type": "Feature", "properties": { "osmid": "4173949389", "amenity": "bicycle_rental", "capacity": "13", "name": "80 - Enric Granados 35", "network": "bicing" }, "geometry": { "type": "Point", "coordinates": [ 2.1599472, 41.3897835 ] } },
{ "type": "Feature", "properties": { "osmid": "4201616290", "amenity": "bicycle_rental", "capacity": null, "name": null, "network": null }, "geometry": { "type": "Point", "coordinates": [ 2.1851814, 41.3831278 ] } },
{ "type": "Feature", "properties": { "osmid": "4207680924", "amenity": "bicycle_rental", "capacity": null, "name": null, "network": null }, "geometry": { "type": "Point", "coordinates": [ 2.1840826, 41.3836883 ] } },
{ "type": "Feature", "properties": { "osmid": "4253200493", "amenity": "bicycle_rental", "capacity": "100", "name": "Rent a Bike BCN - Shop Tetuan", "network": "Rent a Bike BCN" }, "geometry": { "type": "Point", "coordinates": [ 2.1770036, 41.3963442 ] } },
{ "type": "Feature", "properties": { "osmid": "4267975640", "amenity": "bicycle_rental", "capacity": "24", "name": "42 - Ciutat de Granada 168", "network": "bicing" }, "geometry": { "type": "Point", "coordinates": [ 2.1897902, 41.4045715 ] } },
{ "type": "Feature", "properties": { "osmid": "4282250034", "amenity": "bicycle_rental", "capacity": "26", "name": "132 - Pl. Valentí Amirall", "network": "bicing" }, "geometry": { "type": "Point", "coordinates": [ 2.1920652, 41.4083643 ] } },
{ "type": "Feature", "properties": { "osmid": "4297576789", "amenity": "bicycle_rental", "capacity": "31", "name": "348 - Jardins de Can Ferrero", "network": "bicing" }, "geometry": { "type": "Point", "coordinates": [ 2.1416553, 41.3571545 ] } },
{ "type": "Feature", "properties": { "osmid": "4311638393", "amenity": "bicycle_rental", "capacity": null, "name": "Rent a Bike BCN - Shop Placa Espanya", "network": "Rent a Bike BCN" }, "geometry": { "type": "Point", "coordinates": [ 2.1510172, 41.3758231 ] } },
{ "type": "Feature", "properties": { "osmid": "4311649889", "amenity": "bicycle_rental", "capacity": null, "name": null, "network": null }, "geometry": { "type": "Point", "coordinates": [ 2.172982, 41.379215 ] } },
{ "type": "Feature", "properties": { "osmid": "4313491743", "amenity": "bicycle_rental", "capacity": "16", "name": "98 - Viriat 45", "network": "bicing" }, "geometry": { "type": "Point", "coordinates": [ 2.1417672, 41.3806862 ] } },
{ "type": "Feature", "properties": { "osmid": "4334025147", "amenity": "bicycle_rental", "capacity": "21", "name": "67 - Rocafort 214", "network": "bicing" }, "geometry": { "type": "Point", "coordinates": [ 2.145798, 41.3850599 ] } },
{ "type": "Feature", "properties": { "osmid": "4337143930", "amenity": "bicycle_rental", "capacity": "19", "name": "81 - Vilamarí davant 61", "network": "bicing" }, "geometry": { "type": "Point", "coordinates": [ 2.1490873, 41.3790145 ] } },
{ "type": "Feature", "properties": { "osmid": "4337149338", "amenity": "bicycle_rental", "capacity": "25", "name": "384 - Vilamarí 85", "network": "bicing" }, "geometry": { "type": "Point", "coordinates": [ 2.1468141, 41.3807745 ] } },
{ "type": "Feature", "properties": { "osmid": "4354653305", "amenity": "bicycle_rental", "capacity": "28", "name": "12 - Pg Marítim Barceloneta 23", "network": "bicing" }, "geometry": { "type": "Point", "coordinates": [ 2.1957341, 41.3846292 ] } },
{ "type": "Feature", "properties": { "osmid": "4354660681", "amenity": "bicycle_rental", "capacity": "20", "name": "11 - Passeig Marítim 19", "network": "bicing" }, "geometry": { "type": "Point", "coordinates": [ 2.1939317, 41.381668 ] } },
{ "type": "Feature", "properties": { "osmid": "4354661465", "amenity": "bicycle_rental", "capacity": "26", "name": "424 - Passeig Marítim de la Barceloneta, devant del 5-7 5", "network": "bicing" }, "geometry": { "type": "Point", "coordinates": [ 2.1926402, 41.3795911 ] } },
{ "type": "Feature", "properties": { "osmid": "4355890715", "amenity": "bicycle_rental", "capacity": "16", "name": "31 - Plaça del Mar 72", "network": "bicing" }, "geometry": { "type": "Point", "coordinates": [ 2.1888561, 41.3746171 ] } },
{ "type": "Feature", "properties": { "osmid": "4362055902", "amenity": "bicycle_rental", "capacity": "27", "name": "190 - Avinguda Litoral 72", "network": "bicing" }, "geometry": { "type": "Point", "coordinates": [ 2.2076988, 41.3959972 ] } },
{ "type": "Feature", "properties": { "osmid": "4366505450", "amenity": "bicycle_rental", "capacity": "26", "name": "147 - Rambla Prim 79", "network": "bicing" }, "geometry": { "type": "Point", "coordinates": [ 2.2126469, 41.4160093 ] } },
{ "type": "Feature", "properties": { "osmid": "4374272505", "amenity": "bicycle_rental", "capacity": "26", "name": "124 - Passeig Joan de Borbó", "network": "bicing" }, "geometry": { "type": "Point", "coordinates": [ 2.1879207, 41.3702916 ] } },
{ "type": "Feature", "properties": { "osmid": "4379538689", "amenity": "bicycle_rental", "capacity": null, "name": null, "network": null }, "geometry": { "type": "Point", "coordinates": [ 2.1803227, 41.402207 ] } },
{ "type": "Feature", "properties": { "osmid": "4379780891", "amenity": "bicycle_rental", "capacity": "30", "name": "118 - Pujades 3", "network": "bicing" }, "geometry": { "type": "Point", "coordinates": [ 2.1872679, 41.3918599 ] } },
{ "type": "Feature", "properties": { "osmid": "4380483890", "amenity": "bicycle_rental", "capacity": "27", "name": "170 - Avda. Litoral 40", "network": "bicing" }, "geometry": { "type": "Point", "coordinates": [ 2.1997533, 41.3892222 ] } },
{ "type": "Feature", "properties": { "osmid": "4384812189", "amenity": "bicycle_rental", "capacity": null, "name": "color bikes", "network": null }, "geometry": { "type": "Point", "coordinates": [ 2.1701711, 41.3846637 ] } },
{ "type": "Feature", "properties": { "osmid": "4385543639", "amenity": "bicycle_rental", "capacity": "33", "name": "142 - Sancho de Ávila 104", "network": "bicing" }, "geometry": { "type": "Point", "coordinates": [ 2.1924788, 41.4004965 ] } },
{ "type": "Feature", "properties": { "osmid": "4401863491", "amenity": "bicycle_rental", "capacity": "33", "name": "419 - Passeig Lluís Companys - Arc de Triomf", "network": "bicing" }, "geometry": { "type": "Point", "coordinates": [ 2.1809225, 41.3912198 ] } },
{ "type": "Feature", "properties": { "osmid": "4401882390", "amenity": "bicycle_rental", "capacity": "39", "name": "6 - Pg Lluís Companys", "network": "bicing" }, "geometry": { "type": "Point", "coordinates": [ 2.180684, 41.391323 ] } },
{ "type": "Feature", "properties": { "osmid": "4412467922", "amenity": "bicycle_rental", "capacity": "30", "name": "18 - Rosselló 412", "network": "bicing" }, "geometry": { "type": "Point", "coordinates": [ 2.174145, 41.4058841 ] } },
{ "type": "Feature", "properties": { "osmid": "4450641976", "amenity": "bicycle_rental", "capacity": "31", "name": "396 - Joan Miró 2", "network": "bicing" }, "geometry": { "type": "Point", "coordinates": [ 2.2138382, 41.4030798 ] } },
{ "type": "Feature", "properties": { "osmid": "4469460789", "amenity": "bicycle_rental", "capacity": "26", "name": "344 - Ciutat d'Asunción 73", "network": "bicing" }, "geometry": { "type": "Point", "coordinates": [ 2.1995395, 41.44313 ] } },
{ "type": "Feature", "properties": { "osmid": "4508549115", "amenity": "bicycle_rental", "capacity": "25", "name": "299 - Carrer de l'Escultor Ordóñez 55", "network": "bicing" }, "geometry": { "type": "Point", "coordinates": [ 2.1752487, 41.4339993 ] } },
{ "type": "Feature", "properties": { "osmid": "4551779389", "amenity": "bicycle_rental", "capacity": null, "name": "Budget Bikes", "network": null }, "geometry": { "type": "Point", "coordinates": [ 2.1791559, 41.3849585 ] } },
{ "type": "Feature", "properties": { "osmid": "4552358451", "amenity": "bicycle_rental", "capacity": "27", "name": "146 - Pere IV 383", "network": "bicing" }, "geometry": { "type": "Point", "coordinates": [ 2.2047609, 41.4123214 ] } },
{ "type": "Feature", "properties": { "osmid": "4582888346", "amenity": "bicycle_rental", "capacity": "38", "name": "5 - Pg Lluís Companys", "network": "bicing" }, "geometry": { "type": "Point", "coordinates": [ 2.1801887, 41.3910111 ] } },
{ "type": "Feature", "properties": { "osmid": "4701758811", "amenity": "bicycle_rental", "capacity": "23", "name": "35 - Sant Ramon de Penyafort 1", "network": "bicing" }, "geometry": { "type": "Point", "coordinates": [ 2.2209978, 41.4136149 ] } },
{ "type": "Feature", "properties": { "osmid": "4702264701", "amenity": "bicycle_rental", "capacity": "12", "name": "476 - (PK) C\/ de Badajoz 168", "network": "bicing" }, "geometry": { "type": "Point", "coordinates": [ 2.1902332, 41.4031117 ] } },
{ "type": "Feature", "properties": { "osmid": "4710305978", "amenity": "bicycle_rental", "capacity": "12", "name": "454 - (PK) C\/ Bilbao 24", "network": "bicing" }, "geometry": { "type": "Point", "coordinates": [ 2.2050417, 41.4018608 ] } },
{ "type": "Feature", "properties": { "osmid": "4726582796", "amenity": "bicycle_rental", "capacity": null, "name": null, "network": null }, "geometry": { "type": "Point", "coordinates": [ 2.1774874, 41.3903061 ] } },
{ "type": "Feature", "properties": { "osmid": "4727974996", "amenity": "bicycle_rental", "capacity": null, "name": "Ben Bike Rent Barcelona", "network": null }, "geometry": { "type": "Point", "coordinates": [ 2.1798371, 41.3909006 ] } },
{ "type": "Feature", "properties": { "osmid": "4733184821", "amenity": "bicycle_rental", "capacity": null, "name": null, "network": null }, "geometry": { "type": "Point", "coordinates": [ 2.1838447, 41.3902007 ] } },
{ "type": "Feature", "properties": { "osmid": "4744932026", "amenity": "bicycle_rental", "capacity": "27", "name": "158 - Rambla de Prim 19", "network": "bicing" }, "geometry": { "type": "Point", "coordinates": [ 2.2185064, 41.4117328 ] } },
{ "type": "Feature", "properties": { "osmid": "4785961957", "amenity": "bicycle_rental", "capacity": "27", "name": "32 - Plaça del Mar 1", "network": "bicing" }, "geometry": { "type": "Point", "coordinates": [ 2.1885875, 41.3736742 ] } },
{ "type": "Feature", "properties": { "osmid": "4789731623", "amenity": "bicycle_rental", "capacity": "26", "name": "315 - Guinardó 32", "network": "bicing" }, "geometry": { "type": "Point", "coordinates": [ 2.1819879, 41.4155707 ] } },
{ "type": "Feature", "properties": { "osmid": "4789731624", "amenity": "bicycle_rental", "capacity": "23", "name": "368 - Diputació 350", "network": "bicing" }, "geometry": { "type": "Point", "coordinates": [ 2.1757371, 41.396855 ] } },
{ "type": "Feature", "properties": { "osmid": "4789731625", "amenity": "bicycle_rental", "capacity": "26", "name": "2 - Roger de Flor\/ Gran Vía", "network": "bicing" }, "geometry": { "type": "Point", "coordinates": [ 2.1782275, 41.394613 ] } },
{ "type": "Feature", "properties": { "osmid": "4823518421", "amenity": "bicycle_rental", "capacity": "27", "name": "241 - Pl. Maragall 22", "network": "bicing" }, "geometry": { "type": "Point", "coordinates": [ 2.1814459, 41.4200306 ] } },
{ "type": "Feature", "properties": { "osmid": "4832178970", "amenity": "bicycle_rental", "capacity": "24", "name": "496 - C\/ de Provença 445", "network": "bicing" }, "geometry": { "type": "Point", "coordinates": [ 2.1750193, 41.4049156 ] } },
{ "type": "Feature", "properties": { "osmid": "4836483248", "amenity": "bicycle_rental", "capacity": "32", "name": "406 - Gran Via de Les Corts Catalanes 592", "network": "bicing" }, "geometry": { "type": "Point", "coordinates": [ 2.164623, 41.3865462 ] } },
{ "type": "Feature", "properties": { "osmid": "4876695622", "amenity": "bicycle_rental", "capacity": "23", "name": "140 - Viladomat 122", "network": "bicing" }, "geometry": { "type": "Point", "coordinates": [ 2.1560218, 41.3807594 ] } },
{ "type": "Feature", "properties": { "osmid": "4878061473", "amenity": "bicycle_rental", "capacity": "12", "name": "460 - (PK) Av. Francesc Cambó 10", "network": "bicing" }, "geometry": { "type": "Point", "coordinates": [ 2.1772306, 41.3857601 ] } },
{ "type": "Feature", "properties": { "osmid": "4878071405", "amenity": "bicycle_rental", "capacity": "25", "name": "60 - Rambla Catalunya 47", "network": "bicing" }, "geometry": { "type": "Point", "coordinates": [ 2.164099, 41.3905039 ] } },
{ "type": "Feature", "properties": { "osmid": "4878081898", "amenity": "bicycle_rental", "capacity": "23", "name": "494 - Rambla Catalunya 31", "network": "bicing" }, "geometry": { "type": "Point", "coordinates": [ 2.1653274, 41.3895541 ] } },
{ "type": "Feature", "properties": { "osmid": "4950747221", "amenity": "bicycle_rental", "capacity": "18", "name": "110 - Avda. Roma 117", "network": "bicing" }, "geometry": { "type": "Point", "coordinates": [ 2.1546667, 41.3853886 ] } },
{ "type": "Feature", "properties": { "osmid": "4983235738", "amenity": "bicycle_rental", "capacity": "27", "name": "159 - Avda. Diagonal 26", "network": "bicing" }, "geometry": { "type": "Point", "coordinates": [ 2.216227, 41.4109476 ] } },
{ "type": "Feature", "properties": { "osmid": "5003289338", "amenity": "bicycle_rental", "capacity": "27", "name": "169 - Avda. Litoral 40", "network": "bicing" }, "geometry": { "type": "Point", "coordinates": [ 2.1999063, 41.3897297 ] } },
{ "type": "Feature", "properties": { "osmid": "5060672224", "amenity": "bicycle_rental", "capacity": null, "name": null, "network": null }, "geometry": { "type": "Point", "coordinates": [ 2.1734321, 41.3752726 ] } },
{ "type": "Feature", "properties": { "osmid": "5104895829", "amenity": "bicycle_rental", "capacity": "27", "name": "423 - Carrer d'Hondures 32", "network": "bicing" }, "geometry": { "type": "Point", "coordinates": [ 2.1895031, 41.4202267 ] } },
{ "type": "Feature", "properties": { "osmid": "5105192355", "amenity": "bicycle_rental", "capacity": "27", "name": "248 - Palència 31", "network": "bicing" }, "geometry": { "type": "Point", "coordinates": [ 2.1903616, 41.4181883 ] } },
{ "type": "Feature", "properties": { "osmid": "5107132032", "amenity": "bicycle_rental", "capacity": "18", "name": "134 - Gran Via 990", "network": "bicing" }, "geometry": { "type": "Point", "coordinates": [ 2.1976731, 41.4111173 ] } },
{ "type": "Feature", "properties": { "osmid": "5168670222", "amenity": "bicycle_rental", "capacity": null, "name": "Barcelobike", "network": null }, "geometry": { "type": "Point", "coordinates": [ 2.1776007, 41.3889518 ] } },
{ "type": "Feature", "properties": { "osmid": "5173975513", "amenity": "bicycle_rental", "capacity": "33", "name": "361 - Passeig de Colom", "network": "bicing" }, "geometry": { "type": "Point", "coordinates": [ 2.1786436, 41.3763505 ] } },
{ "type": "Feature", "properties": { "osmid": "5200151927", "amenity": "bicycle_rental", "capacity": null, "name": null, "network": null }, "geometry": { "type": "Point", "coordinates": [ 2.1679995, 41.3847804 ] } },
{ "type": "Feature", "properties": { "osmid": "5262338604", "amenity": "bicycle_rental", "capacity": "24", "name": "183 - Gavà 1", "network": "bicing" }, "geometry": { "type": "Point", "coordinates": [ 2.1388336, 41.3704064 ] } },
{ "type": "Feature", "properties": { "osmid": "5262543694", "amenity": "bicycle_rental", "capacity": "12", "name": "491 - (PK) Carrer de Carreras i Candi 65", "network": "bicing" }, "geometry": { "type": "Point", "coordinates": [ 2.12898, 41.37252 ] } },
{ "type": "Feature", "properties": { "osmid": "5262543695", "amenity": "bicycle_rental", "capacity": "12", "name": "489 - (PK) Plaça Canonge Rodó", "network": "bicing" }, "geometry": { "type": "Point", "coordinates": [ 2.188282, 41.409532 ] } },
{ "type": "Feature", "properties": { "osmid": "5262543696", "amenity": "bicycle_rental", "capacity": "12", "name": "488 - (PK) C\/ de Cienfuegos 13", "network": "bicing" }, "geometry": { "type": "Point", "coordinates": [ 2.184391, 41.423976 ] } },
{ "type": "Feature", "properties": { "osmid": "5262543697", "amenity": "bicycle_rental", "capacity": "12", "name": "487 - (PK) Pl. de Ferrer i Cajigal", "network": "bicing" }, "geometry": { "type": "Point", "coordinates": [ 2.154, 41.38921 ] } },
{ "type": "Feature", "properties": { "osmid": "5262543698", "amenity": "bicycle_rental", "capacity": "12", "name": "486 - Passeig de Gràcia - Diagonal", "network": "bicing" }, "geometry": { "type": "Point", "coordinates": [ 2.159445, 41.396934 ] } },
{ "type": "Feature", "properties": { "osmid": "5262543699", "amenity": "bicycle_rental", "capacity": "10", "name": "485 - (PK) Plaça Urquinaona", "network": "bicing" }, "geometry": { "type": "Point", "coordinates": [ 2.173239, 41.389914 ] } },
{ "type": "Feature", "properties": { "osmid": "5262543700", "amenity": "bicycle_rental", "capacity": "12", "name": "484 - (PK) Rambla de Catalunya - Ronda Universitat", "network": "bicing" }, "geometry": { "type": "Point", "coordinates": [ 2.166997, 41.388101 ] } },
{ "type": "Feature", "properties": { "osmid": "5262543701", "amenity": "bicycle_rental", "capacity": "12", "name": "483 - (PK) Carrer de Siracusa 39-51", "network": "bicing" }, "geometry": { "type": "Point", "coordinates": [ 2.160748, 41.401752 ] } },
{ "type": "Feature", "properties": { "osmid": "5262543702", "amenity": "bicycle_rental", "capacity": "12", "name": "482 - (PK) Pl. d'Ernest Lluch i Martin Sn", "network": "bicing" }, "geometry": { "type": "Point", "coordinates": [ 2.22123, 41.41306 ] } },
{ "type": "Feature", "properties": { "osmid": "5262543703", "amenity": "bicycle_rental", "capacity": "12", "name": "481 - (PK) Carrer de València 77", "network": "bicing" }, "geometry": { "type": "Point", "coordinates": [ 2.150337, 41.383036 ] } },
{ "type": "Feature", "properties": { "osmid": "5262543704", "amenity": "bicycle_rental", "capacity": "12", "name": "480 - (PK) Carrer dels Floristes de la Rambla 8", "network": "bicing" }, "geometry": { "type": "Point", "coordinates": [ 2.170239, 41.381516 ] } },
{ "type": "Feature", "properties": { "osmid": "5262543705", "amenity": "bicycle_rental", "capacity": "12", "name": "479 - (PK) Carrer de la Marina 13-17", "network": "bicing" }, "geometry": { "type": "Point", "coordinates": [ 2.196595, 41.387298 ] } },
{ "type": "Feature", "properties": { "osmid": "5262543706", "amenity": "bicycle_rental", "capacity": "12", "name": "478 - (PK) Carrer del Baluard 27", "network": "bicing" }, "geometry": { "type": "Point", "coordinates": [ 2.1891, 41.3798 ] } },
{ "type": "Feature", "properties": { "osmid": "5262543707", "amenity": "bicycle_rental", "capacity": "10", "name": "477 - (PK) Passeig de Colom 1", "network": "bicing" }, "geometry": { "type": "Point", "coordinates": [ 2.178745, 41.376648 ] } },
{ "type": "Feature", "properties": { "osmid": "5262543708", "amenity": "bicycle_rental", "capacity": "12", "name": "475 - (PK) Carrer de la Marina 345", "network": "bicing" }, "geometry": { "type": "Point", "coordinates": [ 2.169385, 41.408528 ] } },
{ "type": "Feature", "properties": { "osmid": "5262543709", "amenity": "bicycle_rental", "capacity": "10", "name": "474 - (PK) Pl. Gal·la Placídia 2", "network": "bicing" }, "geometry": { "type": "Point", "coordinates": [ 2.153668, 41.3989 ] } },
{ "type": "Feature", "properties": { "osmid": "5262543710", "amenity": "bicycle_rental", "capacity": "12", "name": "473 - (PK) Passeig de Garcia Fària 71", "network": "bicing" }, "geometry": { "type": "Point", "coordinates": [ 2.214978, 41.404459 ] } },
{ "type": "Feature", "properties": { "osmid": "5262543711", "amenity": "bicycle_rental", "capacity": "10", "name": "472 - (PK) Carrer del Torrent de l’Olla 221", "network": "bicing" }, "geometry": { "type": "Point", "coordinates": [ 2.151341, 41.407353 ] } },
{ "type": "Feature", "properties": { "osmid": "5262543712", "amenity": "bicycle_rental", "capacity": "12", "name": "471 - (PK) Carrer Marquès de Mulhacén 51", "network": "bicing" }, "geometry": { "type": "Point", "coordinates": [ 2.114973, 41.39415 ] } },
{ "type": "Feature", "properties": { "osmid": "5262543713", "amenity": "bicycle_rental", "capacity": "12", "name": "470 - (PK) Carrer Cardenal de Sentmenat 8", "network": "bicing" }, "geometry": { "type": "Point", "coordinates": [ 2.125411, 41.397921 ] } },
{ "type": "Feature", "properties": { "osmid": "5262543714", "amenity": "bicycle_rental", "capacity": "12", "name": "469 - (PK) Rambla del Poblenou 130", "network": "bicing" }, "geometry": { "type": "Point", "coordinates": [ 2.197132, 41.404362 ] } },
{ "type": "Feature", "properties": { "osmid": "5262543715", "amenity": "bicycle_rental", "capacity": "12", "name": "468 - (PK) Carrer de les Monges 2", "network": "bicing" }, "geometry": { "type": "Point", "coordinates": [ 2.187974, 41.430201 ] } },
{ "type": "Feature", "properties": { "osmid": "5262543716", "amenity": "bicycle_rental", "capacity": "12", "name": "467 - (PK) Carrer del Doctor Aiguader 86-88", "network": "bicing" }, "geometry": { "type": "Point", "coordinates": [ 2.194135, 41.38582 ] } },
{ "type": "Feature", "properties": { "osmid": "5262543717", "amenity": "bicycle_rental", "capacity": "12", "name": "466 - (PK) Passeig Maragall 54", "network": "bicing" }, "geometry": { "type": "Point", "coordinates": [ 2.180684, 41.415745 ] } },
{ "type": "Feature", "properties": { "osmid": "5262543718", "amenity": "bicycle_rental", "capacity": "10", "name": "464 - (PK) Carrer de Ramón Albó 77s 77", "network": "bicing" }, "geometry": { "type": "Point", "coordinates": [ 2.177205, 41.427727 ] } },
{ "type": "Feature", "properties": { "osmid": "5262543719", "amenity": "bicycle_rental", "capacity": "10", "name": "463 - (PK) Carrer de l’Abat Safont 2", "network": "bicing" }, "geometry": { "type": "Point", "coordinates": [ 2.169795, 41.375244 ] } },
{ "type": "Feature", "properties": { "osmid": "5262543720", "amenity": "bicycle_rental", "capacity": "10", "name": "462 - (PK) Av. Josep Tarradellas 139", "network": "bicing" }, "geometry": { "type": "Point", "coordinates": [ 2.143221, 41.390125 ] } },
{ "type": "Feature", "properties": { "osmid": "5262548921", "amenity": "bicycle_rental", "capacity": "12", "name": "461 - (PK) Av. Josep Tarradellas 46", "network": "bicing" }, "geometry": { "type": "Point", "coordinates": [ 2.14274, 41.384111 ] } },
{ "type": "Feature", "properties": { "osmid": "5262548922", "amenity": "bicycle_rental", "capacity": "12", "name": "459 - (PK) C\/ d'Alí Bei 54", "network": "bicing" }, "geometry": { "type": "Point", "coordinates": [ 2.181443, 41.393941 ] } },
{ "type": "Feature", "properties": { "osmid": "5262548923", "amenity": "bicycle_rental", "capacity": "12", "name": "458 - (PK) Av. Joan XXIII 23-25", "network": "bicing" }, "geometry": { "type": "Point", "coordinates": [ 2.122085, 41.384344 ] } },
{ "type": "Feature", "properties": { "osmid": "5262548924", "amenity": "bicycle_rental", "capacity": "12", "name": "456 - (PK) C\/ de Flos i Calcat 2", "network": "bicing" }, "geometry": { "type": "Point", "coordinates": [ 2.128581, 41.389853 ] } },
{ "type": "Feature", "properties": { "osmid": "5262548925", "amenity": "bicycle_rental", "capacity": "10", "name": "455 - (PK) Av. del Litoral 34", "network": "bicing" }, "geometry": { "type": "Point", "coordinates": [ 2.19917, 41.388966 ] } },
{ "type": "Feature", "properties": { "osmid": "5262548926", "amenity": "bicycle_rental", "capacity": "9", "name": "453 - (PK) C\/ Urgell 14", "network": "bicing" }, "geometry": { "type": "Point", "coordinates": [ 2.16204, 41.379563 ] } },
{ "type": "Feature", "properties": { "osmid": "5262548928", "amenity": "bicycle_rental", "capacity": "11", "name": "451 - (PK) C\/ Jaume Fabra 12", "network": "bicing" }, "geometry": { "type": "Point", "coordinates": [ 2.159668, 41.37445 ] } },
{ "type": "Feature", "properties": { "osmid": "5262548929", "amenity": "bicycle_rental", "capacity": "25", "name": "428 - Carrer Pujades 103", "network": "bicing" }, "geometry": { "type": "Point", "coordinates": [ 2.196261, 41.398389 ] } },
{ "type": "Feature", "properties": { "osmid": "5262548930", "amenity": "bicycle_rental", "capacity": "19", "name": "427 - Carrer de Sant Pau 119", "network": "bicing" }, "geometry": { "type": "Point", "coordinates": [ 2.168007, 41.375336 ] } },
{ "type": "Feature", "properties": { "osmid": "5262548931", "amenity": "bicycle_rental", "capacity": "27", "name": "426 - Carrer de Ribes 59", "network": "bicing" }, "geometry": { "type": "Point", "coordinates": [ 2.183023, 41.398305 ] } },
{ "type": "Feature", "properties": { "osmid": "5262548932", "amenity": "bicycle_rental", "capacity": "26", "name": "425 - Carrer de Cervelló 5", "network": "bicing" }, "geometry": { "type": "Point", "coordinates": [ 2.1749, 41.37652 ] } },
{ "type": "Feature", "properties": { "osmid": "5262548933", "amenity": "bicycle_rental", "capacity": "29", "name": "421 - Plaça de Joan Peiró", "network": "bicing" }, "geometry": { "type": "Point", "coordinates": [ 2.1390637, 41.3779824 ] } },
{ "type": "Feature", "properties": { "osmid": "5262548934", "amenity": "bicycle_rental", "capacity": "25", "name": "418 - Passeig de Lluís Companys", "network": "bicing" }, "geometry": { "type": "Point", "coordinates": [ 2.180251, 41.390943 ] } },
{ "type": "Feature", "properties": { "osmid": "5262548935", "amenity": "bicycle_rental", "capacity": "29", "name": "410 - Pg Colom - Les Rambles", "network": "bicing" }, "geometry": { "type": "Point", "coordinates": [ 2.17871, 41.376433 ] } },
{ "type": "Feature", "properties": { "osmid": "5262548936", "amenity": "bicycle_rental", "capacity": "28", "name": "409 - Joan d'Àustria 50", "network": "bicing" }, "geometry": { "type": "Point", "coordinates": [ 2.1926208, 41.3923345 ] } },
{ "type": "Feature", "properties": { "osmid": "5262548937", "amenity": "bicycle_rental", "capacity": "27", "name": "405 - Comte Borrell 198", "network": "bicing" }, "geometry": { "type": "Point", "coordinates": [ 2.152, 41.38551 ] } },
{ "type": "Feature", "properties": { "osmid": "5262548938", "amenity": "bicycle_rental", "capacity": "25", "name": "404 - Juan Gris 28", "network": "bicing" }, "geometry": { "type": "Point", "coordinates": [ 2.133087, 41.365374 ] } },
{ "type": "Feature", "properties": { "osmid": "5262548939", "amenity": "bicycle_rental", "capacity": "24", "name": "401 - Pl. Antonio López (Via Laietana) annexa a la 37", "network": "bicing" }, "geometry": { "type": "Point", "coordinates": [ 2.181838, 41.381241 ] } },
{ "type": "Feature", "properties": { "osmid": "5262548940", "amenity": "bicycle_rental", "capacity": "27", "name": "400 - Moll Oriental", "network": "bicing" }, "geometry": { "type": "Point", "coordinates": [ 2.188017, 41.36958 ] } },
{ "type": "Feature", "properties": { "osmid": "5262548941", "amenity": "bicycle_rental", "capacity": "23", "name": "398 - Passeig Marítim de la Barceloneta", "network": "bicing" }, "geometry": { "type": "Point", "coordinates": [ 2.193502, 41.381011 ] } },
{ "type": "Feature", "properties": { "osmid": "5262548942", "amenity": "bicycle_rental", "capacity": "21", "name": "397 - Av. Del Litoral 24", "network": "bicing" }, "geometry": { "type": "Point", "coordinates": [ 2.199334, 41.388894 ] } },
{ "type": "Feature", "properties": { "osmid": "5262548943", "amenity": "bicycle_rental", "capacity": "27", "name": "394 - Diputació 226", "network": "bicing" }, "geometry": { "type": "Point", "coordinates": [ 2.16305, 41.38733 ] } },
{ "type": "Feature", "properties": { "osmid": "5262548944", "amenity": "bicycle_rental", "capacity": "26", "name": "391 - Sagrera 74", "network": "bicing" }, "geometry": { "type": "Point", "coordinates": [ 2.191204, 41.422873 ] } },
{ "type": "Feature", "properties": { "osmid": "5262548945", "amenity": "bicycle_rental", "capacity": "24", "name": "389 - Recinte Parc de la Ciutadella", "network": "bicing" }, "geometry": { "type": "Point", "coordinates": [ 2.1875, 41.38739 ] } },
{ "type": "Feature", "properties": { "osmid": "5262548946", "amenity": "bicycle_rental", "capacity": "23", "name": "387 - Nàpols 125", "network": "bicing" }, "geometry": { "type": "Point", "coordinates": [ 2.178784, 41.395796 ] } },
{ "type": "Feature", "properties": { "osmid": "5262548947", "amenity": "bicycle_rental", "capacity": "27", "name": "377 - Pl. Ictíneo", "network": "bicing" }, "geometry": { "type": "Point", "coordinates": [ 2.183737, 41.37747 ] } },
{ "type": "Feature", "properties": { "osmid": "5262548948", "amenity": "bicycle_rental", "capacity": "27", "name": "376 - World Trade Center", "network": "bicing" }, "geometry": { "type": "Point", "coordinates": [ 2.180302, 41.371663 ] } },
{ "type": "Feature", "properties": { "osmid": "5262548949", "amenity": "bicycle_rental", "capacity": "26", "name": "375 - World Trade Center", "network": "bicing" }, "geometry": { "type": "Point", "coordinates": [ 2.180701, 41.372154 ] } },
{ "type": "Feature", "properties": { "osmid": "5262548950", "amenity": "bicycle_rental", "capacity": "31", "name": "374 - Passeig de Gràcia 89", "network": "bicing" }, "geometry": { "type": "Point", "coordinates": [ 2.16123, 41.395 ] } },
{ "type": "Feature", "properties": { "osmid": "5262548951", "amenity": "bicycle_rental", "capacity": "26", "name": "372 - Padilla 159", "network": "bicing" }, "geometry": { "type": "Point", "coordinates": [ 2.184507, 41.39999 ] } },
{ "type": "Feature", "properties": { "osmid": "5262548952", "amenity": "bicycle_rental", "capacity": "26", "name": "369 - Consell de Cent 482", "network": "bicing" }, "geometry": { "type": "Point", "coordinates": [ 2.177948, 41.400168 ] } },
{ "type": "Feature", "properties": { "osmid": "5262548953", "amenity": "bicycle_rental", "capacity": "29", "name": "367 - Sentmenat 39", "network": "bicing" }, "geometry": { "type": "Point", "coordinates": [ 2.137331, 41.385057 ] } },
{ "type": "Feature", "properties": { "osmid": "5262548954", "amenity": "bicycle_rental", "capacity": "27", "name": "366 - Pau Casals 1", "network": "bicing" }, "geometry": { "type": "Point", "coordinates": [ 2.14358, 41.393037 ] } },
{ "type": "Feature", "properties": { "osmid": "5262548955", "amenity": "bicycle_rental", "capacity": "30", "name": "365 - Viladomat 244", "network": "bicing" }, "geometry": { "type": "Point", "coordinates": [ 2.14702, 41.387499 ] } },
{ "type": "Feature", "properties": { "osmid": "5262548956", "amenity": "bicycle_rental", "capacity": "31", "name": "364 - Passeig de Gràcia 61", "network": "bicing" }, "geometry": { "type": "Point", "coordinates": [ 2.16343, 41.39324 ] } },
{ "type": "Feature", "properties": { "osmid": "5262548957", "amenity": "bicycle_rental", "capacity": "24", "name": "359 - Méndez Núñez 16", "network": "bicing" }, "geometry": { "type": "Point", "coordinates": [ 2.177572, 41.390021 ] } },
{ "type": "Feature", "properties": { "osmid": "5262548958", "amenity": "bicycle_rental", "capacity": "27", "name": "357 - Cardener 82", "network": "bicing" }, "geometry": { "type": "Point", "coordinates": [ 2.1581, 41.410538 ] } },
{ "type": "Feature", "properties": { "osmid": "5262548959", "amenity": "bicycle_rental", "capacity": "32", "name": "350 - Villarroel 208", "network": "bicing" }, "geometry": { "type": "Point", "coordinates": [ 2.14812, 41.391833 ] } },
{ "type": "Feature", "properties": { "osmid": "5262548960", "amenity": "bicycle_rental", "capacity": "31", "name": "347 - Alts Forns 77", "network": "bicing" }, "geometry": { "type": "Point", "coordinates": [ 2.14182, 41.359496 ] } },
{ "type": "Feature", "properties": { "osmid": "5262548961", "amenity": "bicycle_rental", "capacity": "26", "name": "343 - Campana de la Maquinista", "network": "bicing" }, "geometry": { "type": "Point", "coordinates": [ 2.199598, 41.438886 ] } },
{ "type": "Feature", "properties": { "osmid": "5262548962", "amenity": "bicycle_rental", "capacity": "26", "name": "342 - Roc Boronat 134", "network": "bicing" }, "geometry": { "type": "Point", "coordinates": [ 2.1935608, 41.4035576 ] } },
{ "type": "Feature", "properties": { "osmid": "5262548963", "amenity": "bicycle_rental", "capacity": "26", "name": "324 - Reina Victoria 31", "network": "bicing" }, "geometry": { "type": "Point", "coordinates": [ 2.136258, 41.396938 ] } },
{ "type": "Feature", "properties": { "osmid": "5262548964", "amenity": "bicycle_rental", "capacity": "25", "name": "320 - Francolí 21", "network": "bicing" }, "geometry": { "type": "Point", "coordinates": [ 2.1459032, 41.4034081 ] } },
{ "type": "Feature", "properties": { "osmid": "5262548965", "amenity": "bicycle_rental", "capacity": "27", "name": "318 - Cartagena 83", "network": "bicing" }, "geometry": { "type": "Point", "coordinates": [ 2.171331, 41.413406 ] } },
{ "type": "Feature", "properties": { "osmid": "5262548966", "amenity": "bicycle_rental", "capacity": "27", "name": "301 - Marie Curie 8", "network": "bicing" }, "geometry": { "type": "Point", "coordinates": [ 2.169644, 41.437053 ] } },
{ "type": "Feature", "properties": { "osmid": "5262548967", "amenity": "bicycle_rental", "capacity": "17", "name": "300 - Carrer de Maladeta 1", "network": "bicing" }, "geometry": { "type": "Point", "coordinates": [ 2.176909, 41.431593 ] } },
{ "type": "Feature", "properties": { "osmid": "5262548968", "amenity": "bicycle_rental", "capacity": "32", "name": "298 - Andreu Nin 22", "network": "bicing" }, "geometry": { "type": "Point", "coordinates": [ 2.181747, 41.43463 ] } },
{ "type": "Feature", "properties": { "osmid": "5262548969", "amenity": "bicycle_rental", "capacity": "24", "name": "297 - Carrer Turó Blau 1", "network": "bicing" }, "geometry": { "type": "Point", "coordinates": [ 2.176822, 41.438864 ] } },
{ "type": "Feature", "properties": { "osmid": "5262548970", "amenity": "bicycle_rental", "capacity": "32", "name": "296 - Carrer de Rosselló i Porcel 1", "network": "bicing" }, "geometry": { "type": "Point", "coordinates": [ 2.183877, 41.436505 ] } },
{ "type": "Feature", "properties": { "osmid": "5262548971", "amenity": "bicycle_rental", "capacity": "25", "name": "295 - Sant Iscle 60", "network": "bicing" }, "geometry": { "type": "Point", "coordinates": [ 2.1715, 41.43345 ] } },
{ "type": "Feature", "properties": { "osmid": "5262548972", "amenity": "bicycle_rental", "capacity": "26", "name": "294 - Seu del Districte (Nou Barris)", "network": "bicing" }, "geometry": { "type": "Point", "coordinates": [ 2.170678, 41.436373 ] } },
{ "type": "Feature", "properties": { "osmid": "5262548973", "amenity": "bicycle_rental", "capacity": "26", "name": "293 - Petrarca 44", "network": "bicing" }, "geometry": { "type": "Point", "coordinates": [ 2.164559, 41.428747 ] } },
{ "type": "Feature", "properties": { "osmid": "5262548974", "amenity": "bicycle_rental", "capacity": "27", "name": "292 - Amilcar 1", "network": "bicing" }, "geometry": { "type": "Point", "coordinates": [ 2.171974, 41.430036 ] } },
{ "type": "Feature", "properties": { "osmid": "5262548975", "amenity": "bicycle_rental", "capacity": "26", "name": "291 - Subirats 5", "network": "bicing" }, "geometry": { "type": "Point", "coordinates": [ 2.1745873, 41.4269911 ] } },
{ "type": "Feature", "properties": { "osmid": "5262548976", "amenity": "bicycle_rental", "capacity": "27", "name": "290 - Plaça dels Jardins d'Alfàbia 1", "network": "bicing" }, "geometry": { "type": "Point", "coordinates": [ 2.174047, 41.437094 ] } },
{ "type": "Feature", "properties": { "osmid": "5262548977", "amenity": "bicycle_rental", "capacity": "26", "name": "289 - Múrcia 64", "network": "bicing" }, "geometry": { "type": "Point", "coordinates": [ 2.191022, 41.416828 ] } },
{ "type": "Feature", "properties": { "osmid": "5262548978", "amenity": "bicycle_rental", "capacity": "31", "name": "288 - Pl. Virrei Amat", "network": "bicing" }, "geometry": { "type": "Point", "coordinates": [ 2.174487, 41.429636 ] } },
{ "type": "Feature", "properties": { "osmid": "5262548979", "amenity": "bicycle_rental", "capacity": "22", "name": "285 - Malats 98", "network": "bicing" }, "geometry": { "type": "Point", "coordinates": [ 2.186059, 41.436708 ] } },
{ "type": "Feature", "properties": { "osmid": "5262548980", "amenity": "bicycle_rental", "capacity": "27", "name": "284 - Ada. Diagonal 652", "network": "bicing" }, "geometry": { "type": "Point", "coordinates": [ 2.131454, 41.389503 ] } },
{ "type": "Feature", "properties": { "osmid": "5262548981", "amenity": "bicycle_rental", "capacity": "18", "name": "283 - Carrer Fulton 1", "network": "bicing" }, "geometry": { "type": "Point", "coordinates": [ 2.16157, 41.42968 ] } },
{ "type": "Feature", "properties": { "osmid": "5262548982", "amenity": "bicycle_rental", "capacity": "26", "name": "282 - Font d'en Fargas 1", "network": "bicing" }, "geometry": { "type": "Point", "coordinates": [ 2.166022, 41.427561 ] } },
{ "type": "Feature", "properties": { "osmid": "5262548983", "amenity": "bicycle_rental", "capacity": "23", "name": "281 - Escornalbou 51", "network": "bicing" }, "geometry": { "type": "Point", "coordinates": [ 2.176313, 41.418088 ] } },
{ "type": "Feature", "properties": { "osmid": "5262548984", "amenity": "bicycle_rental", "capacity": "24", "name": "279 - Mas Casanovas 137", "network": "bicing" }, "geometry": { "type": "Point", "coordinates": [ 2.174564, 41.415951 ] } },
{ "type": "Feature", "properties": { "osmid": "5262548985", "amenity": "bicycle_rental", "capacity": "24", "name": "278 - Travessera de Gracia 368", "network": "bicing" }, "geometry": { "type": "Point", "coordinates": [ 2.1715239, 41.4098224 ] } },
{ "type": "Feature", "properties": { "osmid": "5262548986", "amenity": "bicycle_rental", "capacity": "22", "name": "277 - Travessera de Gràcia 328", "network": "bicing" }, "geometry": { "type": "Point", "coordinates": [ 2.16905, 41.408284 ] } },
{ "type": "Feature", "properties": { "osmid": "5262548987", "amenity": "bicycle_rental", "capacity": "30", "name": "275 - Rio de Janeiro 3", "network": "bicing" }, "geometry": { "type": "Point", "coordinates": [ 2.182225, 41.430693 ] } },
{ "type": "Feature", "properties": { "osmid": "5262548988", "amenity": "bicycle_rental", "capacity": "29", "name": "274 - Rambla Fabra i Puig 67", "network": "bicing" }, "geometry": { "type": "Point", "coordinates": [ 2.18473, 41.430071 ] } },
{ "type": "Feature", "properties": { "osmid": "5262548989", "amenity": "bicycle_rental", "capacity": "36", "name": "273 - Avda. Meridiana 404", "network": "bicing" }, "geometry": { "type": "Point", "coordinates": [ 2.183382, 41.430404 ] } },
{ "type": "Feature", "properties": { "osmid": "5262548991", "amenity": "bicycle_rental", "capacity": "20", "name": "271 - Via Barcino 71", "network": "bicing" }, "geometry": { "type": "Point", "coordinates": [ 2.192668, 41.450882 ] } },
{ "type": "Feature", "properties": { "osmid": "5262548992", "amenity": "bicycle_rental", "capacity": "27", "name": "270 - Pl. de la Trinitat 5-7 \/ amb Mare de Déu de Lorda 5", "network": "bicing" }, "geometry": { "type": "Point", "coordinates": [ 2.190978, 41.449874 ] } },
{ "type": "Feature", "properties": { "osmid": "5262548993", "amenity": "bicycle_rental", "capacity": "26", "name": "269 - Via Barcino 121", "network": "bicing" }, "geometry": { "type": "Point", "coordinates": [ 2.192826, 41.448128 ] } },
{ "type": "Feature", "properties": { "osmid": "5262548994", "amenity": "bicycle_rental", "capacity": "26", "name": "268 - Fernando Pessoa 72", "network": "bicing" }, "geometry": { "type": "Point", "coordinates": [ 2.192892, 41.445705 ] } },
{ "type": "Feature", "properties": { "osmid": "5262548995", "amenity": "bicycle_rental", "capacity": "26", "name": "267 - Passeig Torras i Bages 129", "network": "bicing" }, "geometry": { "type": "Point", "coordinates": [ 2.190623, 41.443395 ] } },
{ "type": "Feature", "properties": { "osmid": "5262548996", "amenity": "bicycle_rental", "capacity": "25", "name": "266 - Concepció Arenal 176", "network": "bicing" }, "geometry": { "type": "Point", "coordinates": [ 2.184238, 41.426841 ] } },
{ "type": "Feature", "properties": { "osmid": "5262548997", "amenity": "bicycle_rental", "capacity": "25", "name": "265 - Casanovas 71 82", "network": "bicing" }, "geometry": { "type": "Point", "coordinates": [ 2.1583003, 41.3856439 ] } },
{ "type": "Feature", "properties": { "osmid": "5262548998", "amenity": "bicycle_rental", "capacity": "32", "name": "264 - República Dominicana 25", "network": "bicing" }, "geometry": { "type": "Point", "coordinates": [ 2.197033, 41.439949 ] } },
{ "type": "Feature", "properties": { "osmid": "5262548999", "amenity": "bicycle_rental", "capacity": "26", "name": "263 - C\/ Joan Torras 28", "network": "bicing" }, "geometry": { "type": "Point", "coordinates": [ 2.191386, 41.437656 ] } },
{ "type": "Feature", "properties": { "osmid": "5262549000", "amenity": "bicycle_rental", "capacity": "31", "name": "262 - Rocafort 103", "network": "bicing" }, "geometry": { "type": "Point", "coordinates": [ 2.152496, 41.379821 ] } },
{ "type": "Feature", "properties": { "osmid": "5262549001", "amenity": "bicycle_rental", "capacity": "24", "name": "260 - Plaça de l'Estació 6", "network": "bicing" }, "geometry": { "type": "Point", "coordinates": [ 2.192952, 41.43618 ] } },
{ "type": "Feature", "properties": { "osmid": "5262549002", "amenity": "bicycle_rental", "capacity": "26", "name": "259 - Carrer de Bartrina 14", "network": "bicing" }, "geometry": { "type": "Point", "coordinates": [ 2.185818, 41.439109 ] } },
{ "type": "Feature", "properties": { "osmid": "5262549003", "amenity": "bicycle_rental", "capacity": "26", "name": "258 - Carrer de Palomar 6", "network": "bicing" }, "geometry": { "type": "Point", "coordinates": [ 2.189101, 41.442013 ] } },
{ "type": "Feature", "properties": { "osmid": "5262549004", "amenity": "bicycle_rental", "capacity": "24", "name": "256 - Malats 28", "network": "bicing" }, "geometry": { "type": "Point", "coordinates": [ 2.189524, 41.435998 ] } },
{ "type": "Feature", "properties": { "osmid": "5262549005", "amenity": "bicycle_rental", "capacity": "22", "name": "255 - Irlanda 11", "network": "bicing" }, "geometry": { "type": "Point", "coordinates": [ 2.185852, 41.431183 ] } },
{ "type": "Feature", "properties": { "osmid": "5262549006", "amenity": "bicycle_rental", "capacity": "32", "name": "254 - Gran de Sant Andreu 93", "network": "bicing" }, "geometry": { "type": "Point", "coordinates": [ 2.189581, 41.430343 ] } },
{ "type": "Feature", "properties": { "osmid": "5262549007", "amenity": "bicycle_rental", "capacity": "25", "name": "253 - Onze de Setembre 37", "network": "bicing" }, "geometry": { "type": "Point", "coordinates": [ 2.191821, 41.429977 ] } },
{ "type": "Feature", "properties": { "osmid": "5262549008", "amenity": "bicycle_rental", "capacity": "26", "name": "250 - Portugal 12", "network": "bicing" }, "geometry": { "type": "Point", "coordinates": [ 2.190132, 41.426248 ] } },
{ "type": "Feature", "properties": { "osmid": "5262549009", "amenity": "bicycle_rental", "capacity": "24", "name": "249 - Açores 1", "network": "bicing" }, "geometry": { "type": "Point", "coordinates": [ 2.188997, 41.425216 ] } },
{ "type": "Feature", "properties": { "osmid": "5262549010", "amenity": "bicycle_rental", "capacity": "24", "name": "247 - Olesa 43", "network": "bicing" }, "geometry": { "type": "Point", "coordinates": [ 2.185171, 41.422811 ] } },
{ "type": "Feature", "properties": { "osmid": "5262549011", "amenity": "bicycle_rental", "capacity": "26", "name": "243 - Alenxadre Galí 1", "network": "bicing" }, "geometry": { "type": "Point", "coordinates": [ 2.181298, 41.423939 ] } },
{ "type": "Feature", "properties": { "osmid": "5262549012", "amenity": "bicycle_rental", "capacity": "27", "name": "242 - Ramon Albó 1", "network": "bicing" }, "geometry": { "type": "Point", "coordinates": [ 2.177284, 41.424451 ] } },
{ "type": "Feature", "properties": { "osmid": "5262549013", "amenity": "bicycle_rental", "capacity": "26", "name": "240 - Josep Estivill 32", "network": "bicing" }, "geometry": { "type": "Point", "coordinates": [ 2.187558, 41.417763 ] } },
{ "type": "Feature", "properties": { "osmid": "5262549014", "amenity": "bicycle_rental", "capacity": "19", "name": "239 - Indústria 329", "network": "bicing" }, "geometry": { "type": "Point", "coordinates": [ 2.184534, 41.417323 ] } },
{ "type": "Feature", "properties": { "osmid": "5262549015", "amenity": "bicycle_rental", "capacity": "27", "name": "238 - Espronceda 298", "network": "bicing" }, "geometry": { "type": "Point", "coordinates": [ 2.190986, 41.415684 ] } },
{ "type": "Feature", "properties": { "osmid": "5262549016", "amenity": "bicycle_rental", "capacity": "26", "name": "237 - Rius i Taulet 4", "network": "bicing" }, "geometry": { "type": "Point", "coordinates": [ 2.154471, 41.372891 ] } },
{ "type": "Feature", "properties": { "osmid": "5262549017", "amenity": "bicycle_rental", "capacity": "27", "name": "230 - C. De Nil Fabra 16", "network": "bicing" }, "geometry": { "type": "Point", "coordinates": [ 2.151633, 41.405986 ] } },
{ "type": "Feature", "properties": { "osmid": "5262549018", "amenity": "bicycle_rental", "capacity": "26", "name": "225 - Mallorca 84", "network": "bicing" }, "geometry": { "type": "Point", "coordinates": [ 2.15057, 41.38482 ] } },
{ "type": "Feature", "properties": { "osmid": "5262549019", "amenity": "bicycle_rental", "capacity": "32", "name": "223 - Bonavista 14", "network": "bicing" }, "geometry": { "type": "Point", "coordinates": [ 2.1597963, 41.3982999 ] } },
{ "type": "Feature", "properties": { "osmid": "5262549020", "amenity": "bicycle_rental", "capacity": "27", "name": "212 - Numancia 212", "network": "bicing" }, "geometry": { "type": "Point", "coordinates": [ 2.130319, 41.392173 ] } },
{ "type": "Feature", "properties": { "osmid": "5262549921", "amenity": "bicycle_rental", "capacity": "26", "name": "209 - Diputació 200", "network": "bicing" }, "geometry": { "type": "Point", "coordinates": [ 2.161004, 41.385755 ] } },
{ "type": "Feature", "properties": { "osmid": "5262549922", "amenity": "bicycle_rental", "capacity": "33", "name": "208 - Avda. Diagonal 630", "network": "bicing" }, "geometry": { "type": "Point", "coordinates": [ 2.139116, 41.391451 ] } },
{ "type": "Feature", "properties": { "osmid": "5262549923", "amenity": "bicycle_rental", "capacity": "20", "name": "207 - Avda. Diagonal 634", "network": "bicing" }, "geometry": { "type": "Point", "coordinates": [ 2.136665, 41.390828 ] } },
{ "type": "Feature", "properties": { "osmid": "5262549924", "amenity": "bicycle_rental", "capacity": "31", "name": "206 - Avda. Diagonal 650", "network": "bicing" }, "geometry": { "type": "Point", "coordinates": [ 2.13284, 41.389845 ] } },
{ "type": "Feature", "properties": { "osmid": "5262549925", "amenity": "bicycle_rental", "capacity": "30", "name": "204 - Avda. Diagonal 668", "network": "bicing" }, "geometry": { "type": "Point", "coordinates": [ 2.125593, 41.388011 ] } },
{ "type": "Feature", "properties": { "osmid": "5262549926", "amenity": "bicycle_rental", "capacity": "22", "name": "201 - Déu i Mata 56", "network": "bicing" }, "geometry": { "type": "Point", "coordinates": [ 2.135826, 41.388455 ] } },
{ "type": "Feature", "properties": { "osmid": "5262549927", "amenity": "bicycle_rental", "capacity": "24", "name": "200 - Can bruixa 1", "network": "bicing" }, "geometry": { "type": "Point", "coordinates": [ 2.131273, 41.383756 ] } },
{ "type": "Feature", "properties": { "osmid": "5262549928", "amenity": "bicycle_rental", "capacity": "27", "name": "198 - Vallespir 198", "network": "bicing" }, "geometry": { "type": "Point", "coordinates": [ 2.133282, 41.38512 ] } },
{ "type": "Feature", "properties": { "osmid": "5262549929", "amenity": "bicycle_rental", "capacity": "27", "name": "197 - Entença 227", "network": "bicing" }, "geometry": { "type": "Point", "coordinates": [ 2.140959, 41.386984 ] } },
{ "type": "Feature", "properties": { "osmid": "5262549930", "amenity": "bicycle_rental", "capacity": "25", "name": "195 - Vallespir 130", "network": "bicing" }, "geometry": { "type": "Point", "coordinates": [ 2.135433, 41.381888 ] } },
{ "type": "Feature", "properties": { "osmid": "5262549931", "amenity": "bicycle_rental", "capacity": "26", "name": "194 - Joan Güell 98", "network": "bicing" }, "geometry": { "type": "Point", "coordinates": [ 2.132319, 41.381013 ] } },
{ "type": "Feature", "properties": { "osmid": "5262549932", "amenity": "bicycle_rental", "capacity": "19", "name": "192 - Joan Güell 50", "network": "bicing" }, "geometry": { "type": "Point", "coordinates": [ 2.133467, 41.378629 ] } },
{ "type": "Feature", "properties": { "osmid": "5262549933", "amenity": "bicycle_rental", "capacity": "23", "name": "191 - Rocafort 167", "network": "bicing" }, "geometry": { "type": "Point", "coordinates": [ 2.149094, 41.382564 ] } },
{ "type": "Feature", "properties": { "osmid": "5262549934", "amenity": "bicycle_rental", "capacity": "13", "name": "186 - Consell de Cent 6", "network": "bicing" },