{
"type": "FeatureCollection",
"features": [
{ "type": "Feature", "properties": { "osmid": "3061411330", "amenity": "bicycle_rental", "capacity": "18", "name": "Blue Bikes - 359 Broadway - Broadway at Fayette Street", "network": "Blue Bikes" }, "geometry": { "type": "Point", "coordinates": [ -71.104412, 42.370803 ] } },
{ "type": "Feature", "properties": { "osmid": "3061411331", "amenity": "bicycle_rental", "capacity": "21", "name": "Blue Bikes - Alewife Station at Russell Field", "network": "Blue Bikes" }, "geometry": { "type": "Point", "coordinates": [ -71.139459, 42.396105 ] } },
{ "type": "Feature", "properties": { "osmid": "3061411332", "amenity": "bicycle_rental", "capacity": "15", "name": "Blue Bikes - Andrew Station - Dorchester Ave at Humboldt Pl", "network": "Blue Bikes" }, "geometry": { "type": "Point", "coordinates": [ -71.057044, 42.330716 ] } },
{ "type": "Feature", "properties": { "osmid": "3061420121", "amenity": "bicycle_rental", "capacity": "19", "name": "Blue Bikes - Agganis Arena - 925 Comm Ave.", "network": "Blue Bikes" }, "geometry": { "type": "Point", "coordinates": [ -71.116174, 42.351313 ] } },
{ "type": "Feature", "properties": { "osmid": "3061420122", "amenity": "bicycle_rental", "capacity": "15", "name": "Blue Bikes - Allston Green District - Commonwealth Ave & Griggs St", "network": "Blue Bikes" }, "geometry": { "type": "Point", "coordinates": [ -71.13401, 42.348607 ] } },
{ "type": "Feature", "properties": { "osmid": "3061420123", "amenity": "bicycle_rental", "capacity": "14", "name": "Blue Bikes - Boylston St \/ Berkeley St", "network": "Blue Bikes" }, "geometry": { "type": "Point", "coordinates": [ -71.073644, 42.350989 ] } },
{ "type": "Feature", "properties": { "osmid": "3061420124", "amenity": "bicycle_rental", "capacity": "15", "name": "Blue Bikes - Boylston St \/ Washington St", "network": "Blue Bikes" }, "geometry": { "type": "Point", "coordinates": [ -71.062679, 42.352409 ] } },
{ "type": "Feature", "properties": { "osmid": "3061420125", "amenity": "bicycle_rental", "capacity": "22", "name": "Blue Bikes - Boylston St. at Arlington St.", "network": "Blue Bikes" }, "geometry": { "type": "Point", "coordinates": [ -71.070378, 42.352096 ] } },
{ "type": "Feature", "properties": { "osmid": "3061420126", "amenity": "bicycle_rental", "capacity": "19", "name": "Blue Bikes - Boylston at Fairfield", "network": "Blue Bikes" }, "geometry": { "type": "Point", "coordinates": [ -71.082383, 42.348762 ] } },
{ "type": "Feature", "properties": { "osmid": "3061420127", "amenity": "bicycle_rental", "capacity": "15", "name": "Blue Bikes - Brigham Cir \/ Huntington Ave", "network": "Blue Bikes" }, "geometry": { "type": "Point", "coordinates": [ -71.104588, 42.3344547 ] } },
{ "type": "Feature", "properties": { "osmid": "3061420128", "amenity": "bicycle_rental", "capacity": "14", "name": "Blue Bikes - Brookline Village - Station Street MBTA", "network": "Blue Bikes" }, "geometry": { "type": "Point", "coordinates": [ -71.116205, 42.332799 ] } },
{ "type": "Feature", "properties": { "osmid": "3061420129", "amenity": "bicycle_rental", "capacity": "15", "name": "Blue Bikes - Charlestown - Main St at Austin St", "network": "Blue Bikes" }, "geometry": { "type": "Point", "coordinates": [ -71.064608, 42.375603 ] } },
{ "type": "Feature", "properties": { "osmid": "3061420131", "amenity": "bicycle_rental", "capacity": "14", "name": "Blue Bikes - Chinatown Gate Plaza - Surface Rd. at Beach St.", "network": "Blue Bikes" }, "geometry": { "type": "Point", "coordinates": [ -71.059367, 42.351356 ] } },
{ "type": "Feature", "properties": { "osmid": "3061420132", "amenity": "bicycle_rental", "capacity": "19", "name": "Blue Bikes - Christian Science Plaza", "network": "Blue Bikes" }, "geometry": { "type": "Point", "coordinates": [ -71.085918, 42.343864 ] } },
{ "type": "Feature", "properties": { "osmid": "3061420903", "amenity": "bicycle_rental", "capacity": "19", "name": "Blue Bikes - Boston Convention & Exhibition Center", "network": "Blue Bikes" }, "geometry": { "type": "Point", "coordinates": [ -71.0441, 42.3475 ] } },
{ "type": "Feature", "properties": { "osmid": "3061420904", "amenity": "bicycle_rental", "capacity": "17", "name": "Blue Bikes - Boston Medical Center - East Concord at Harrison Ave", "network": "Blue Bikes" }, "geometry": { "type": "Point", "coordinates": [ -71.073089, 42.336437 ] } },
{ "type": "Feature", "properties": { "osmid": "3061421190", "amenity": "bicycle_rental", "capacity": "18", "name": "Blue Bikes - Back Bay \/ South End Station", "network": "Blue Bikes" }, "geometry": { "type": "Point", "coordinates": [ -71.076163, 42.347433 ] } },
{ "type": "Feature", "properties": { "osmid": "3061421191", "amenity": "bicycle_rental", "capacity": "19", "name": "Blue Bikes - Beacon St \/ Mass Ave", "network": "Blue Bikes" }, "geometry": { "type": "Point", "coordinates": [ -71.089886, 42.350851 ] } },
{ "type": "Feature", "properties": { "osmid": "3061421192", "amenity": "bicycle_rental", "capacity": "14", "name": "Blue Bikes - Beacon St at Washington \/ Kirkland", "network": "Blue Bikes" }, "geometry": { "type": "Point", "coordinates": [ -71.106541, 42.378551 ] } },
{ "type": "Feature", "properties": { "osmid": "3061421522", "amenity": "bicycle_rental", "capacity": "23", "name": "Blue Bikes - Boston Public Library - 700 Boylston St.", "network": "Blue Bikes" }, "geometry": { "type": "Point", "coordinates": [ -71.077303, 42.349673 ] } },
{ "type": "Feature", "properties": { "osmid": "3061421524", "amenity": "bicycle_rental", "capacity": "17", "name": "Blue Bikes - HMS \/ HSPH - Ave. Louis Pasteur at Longwood Ave.", "network": "Blue Bikes" }, "geometry": { "type": "Point", "coordinates": [ -71.102797, 42.337171 ] } },
{ "type": "Feature", "properties": { "osmid": "3061423725", "amenity": "bicycle_rental", "capacity": "14", "name": "Blue Bikes - Biomed - Kendall Street", "network": "Blue Bikes" }, "geometry": { "type": "Point", "coordinates": [ -71.082063, 42.363753 ] } },
{ "type": "Feature", "properties": { "osmid": "3061423726", "amenity": "bicycle_rental", "capacity": "13", "name": "Blue Bikes - Cambridge St - at Columbia St \/ Webster Ave", "network": "Blue Bikes" }, "geometry": { "type": "Point", "coordinates": [ -71.094445, 42.372969 ] } },
{ "type": "Feature", "properties": { "osmid": "3061423727", "amenity": "bicycle_rental", "capacity": "13", "name": "Blue Bikes - Cambridge St. at Joy St.", "network": "Blue Bikes" }, "geometry": { "type": "Point", "coordinates": [ -71.06514, 42.361285 ] } },
{ "type": "Feature", "properties": { "osmid": "3061423728", "amenity": "bicycle_rental", "capacity": "15", "name": "Blue Bikes - Harvard University River Houses \/ DeWolfe St at Grant St", "network": "Blue Bikes" }, "geometry": { "type": "Point", "coordinates": [ -71.1167107, 42.3698166 ] } },
{ "type": "Feature", "properties": { "osmid": "3061423729", "amenity": "bicycle_rental", "capacity": "19", "name": "Blue Bikes - 175 North Harvard St", "network": "Blue Bikes" }, "geometry": { "type": "Point", "coordinates": [ -71.1291109, 42.3638248 ] } },
{ "type": "Feature", "properties": { "osmid": "3061423792", "amenity": "bicycle_rental", "capacity": "18", "name": "Blue Bikes - Biogen Idec - Binney St \/ Sixth St", "network": "Blue Bikes" }, "geometry": { "type": "Point", "coordinates": [ -71.086388, 42.366095 ] } },
{ "type": "Feature", "properties": { "osmid": "3061423833", "amenity": "bicycle_rental", "capacity": "19", "name": "Blue Bikes - Aquarium Station - 200 Atlantic Ave.", "network": "Blue Bikes" }, "geometry": { "type": "Point", "coordinates": [ -71.051601, 42.35977 ] } },
{ "type": "Feature", "properties": { "osmid": "3061423834", "amenity": "bicycle_rental", "capacity": "18", "name": "Blue Bikes - B.U. Central - 725 Comm. Ave.", "network": "Blue Bikes" }, "geometry": { "type": "Point", "coordinates": [ -71.105884, 42.350075 ] } },
{ "type": "Feature", "properties": { "osmid": "3061423835", "amenity": "bicycle_rental", "capacity": "14", "name": "Blue Bikes - BIDMC - Brookline at Burlington St", "network": "Blue Bikes" }, "geometry": { "type": "Point", "coordinates": [ -71.100694, 42.345733 ] } },
{ "type": "Feature", "properties": { "osmid": "3061423841", "amenity": "bicycle_rental", "capacity": "14", "name": "Blue Bikes - Boylston \/ Mass Ave", "network": "Blue Bikes" }, "geometry": { "type": "Point", "coordinates": [ -71.088088, 42.347265 ] } },
{ "type": "Feature", "properties": { "osmid": "3061424237", "amenity": "bicycle_rental", "capacity": "15", "name": "Blue Bikes - Buswell St. at Park Dr.", "network": "Blue Bikes" }, "geometry": { "type": "Point", "coordinates": [ -71.105301, 42.347241 ] } },
{ "type": "Feature", "properties": { "osmid": "3061424238", "amenity": "bicycle_rental", "capacity": "17", "name": "Blue Bikes - Cambridge Main Library at Broadway \/ Trowbridge St", "network": "Blue Bikes" }, "geometry": { "type": "Point", "coordinates": [ -71.111075, 42.373379 ] } },
{ "type": "Feature", "properties": { "osmid": "3061424239", "amenity": "bicycle_rental", "capacity": "15", "name": "Blue Bikes - CambridgeSide Galleria - CambridgeSide PL at Land Blvd", "network": "Blue Bikes" }, "geometry": { "type": "Point", "coordinates": [ -71.076472, 42.366981 ] } },
{ "type": "Feature", "properties": { "osmid": "3061424240", "amenity": "bicycle_rental", "capacity": "17", "name": "Blue Bikes - Central Sq Post Office \/ Cambridge City Hall at Mass Ave \/ Pleasant St", "network": "Blue Bikes" }, "geometry": { "type": "Point", "coordinates": [ -71.1055969, 42.3664339 ] } },
{ "type": "Feature", "properties": { "osmid": "3061424241", "amenity": "bicycle_rental", "capacity": "17", "name": "Blue Bikes - Central Square at Mass Ave \/ Essex St", "network": "Blue Bikes" }, "geometry": { "type": "Point", "coordinates": [ -71.1031, 42.36507 ] } },
{ "type": "Feature", "properties": { "osmid": "3061424242", "amenity": "bicycle_rental", "capacity": "19", "name": "Blue Bikes - Channel Center - A St \/ Richards St", "network": "Blue Bikes" }, "geometry": { "type": "Point", "coordinates": [ -71.0526353, 42.344169 ] } },
{ "type": "Feature", "properties": { "osmid": "3061424243", "amenity": "bicycle_rental", "capacity": "12", "name": "Blue Bikes - Charles Circle - Charles St. at Cambridge St.", "network": "Blue Bikes" }, "geometry": { "type": "Point", "coordinates": [ -71.070884, 42.36069 ] } },
{ "type": "Feature", "properties": { "osmid": "3061424244", "amenity": "bicycle_rental", "capacity": "14", "name": "Blue Bikes - Charles St at Beacon St", "network": "Blue Bikes" }, "geometry": { "type": "Point", "coordinates": [ -71.069849, 42.356052 ] } },
{ "type": "Feature", "properties": { "osmid": "3061424264", "amenity": "bicycle_rental", "capacity": "22", "name": "Blue Bikes - EF - North Point Park", "network": "Blue Bikes" }, "geometry": { "type": "Point", "coordinates": [ -71.069957, 42.369885 ] } },
{ "type": "Feature", "properties": { "osmid": "3061424265", "amenity": "bicycle_rental", "capacity": "15", "name": "Blue Bikes - Egleston Square at Columbus Ave", "network": "Blue Bikes" }, "geometry": { "type": "Point", "coordinates": [ -71.098634, 42.315692 ] } },
{ "type": "Feature", "properties": { "osmid": "3061424266", "amenity": "bicycle_rental", "capacity": "15", "name": "Blue Bikes - Fan Pier", "network": "Blue Bikes" }, "geometry": { "type": "Point", "coordinates": [ -71.044624, 42.353412 ] } },
{ "type": "Feature", "properties": { "osmid": "3061424268", "amenity": "bicycle_rental", "capacity": "23", "name": "Blue Bikes - Franklin St. \/ Arch St.", "network": "Blue Bikes" }, "geometry": { "type": "Point", "coordinates": [ -71.058087, 42.355402 ] } },
{ "type": "Feature", "properties": { "osmid": "3061424269", "amenity": "bicycle_rental", "capacity": "15", "name": "Blue Bikes - Green St T", "network": "Blue Bikes" }, "geometry": { "type": "Point", "coordinates": [ -71.107341, 42.310579 ] } },
{ "type": "Feature", "properties": { "osmid": "3061424270", "amenity": "bicycle_rental", "capacity": "14", "name": "Blue Bikes - Somerville Hospital at Highland Ave \/ Crocker St", "network": "Blue Bikes" }, "geometry": { "type": "Point", "coordinates": [ -71.10942, 42.39082 ] } },
{ "type": "Feature", "properties": { "osmid": "3061424271", "amenity": "bicycle_rental", "capacity": "15", "name": "Blue Bikes - South Boston Library - 646 East Broadway", "network": "Blue Bikes" }, "geometry": { "type": "Point", "coordinates": [ -71.03877, 42.335741 ] } },
{ "type": "Feature", "properties": { "osmid": "3061424272", "amenity": "bicycle_rental", "capacity": "19", "name": "Blue Bikes - Spaulding Rehabilitation Hospital - Charlestown Navy Yard", "network": "Blue Bikes" }, "geometry": { "type": "Point", "coordinates": [ -71.0494339, 42.378093 ] } },
{ "type": "Feature", "properties": { "osmid": "3061424273", "amenity": "bicycle_rental", "capacity": "14", "name": "Blue Bikes - Summer St at Cutter St", "network": "Blue Bikes" }, "geometry": { "type": "Point", "coordinates": [ -71.1203443, 42.3939392 ] } },
{ "type": "Feature", "properties": { "osmid": "3061424274", "amenity": "bicycle_rental", "capacity": "13", "name": "Blue Bikes - Tremont St \/ West St", "network": "Blue Bikes" }, "geometry": { "type": "Point", "coordinates": [ -71.063348, 42.354979 ] } },
{ "type": "Feature", "properties": { "osmid": "3061424275", "amenity": "bicycle_rental", "capacity": "19", "name": "Blue Bikes - Union Square - Somerville", "network": "Blue Bikes" }, "geometry": { "type": "Point", "coordinates": [ -71.095319, 42.379637 ] } },
{ "type": "Feature", "properties": { "osmid": "3061424276", "amenity": "bicycle_rental", "capacity": "13", "name": "Blue Bikes - Washington Square at Washington St. \/ Beacon St.", "network": "Blue Bikes" }, "geometry": { "type": "Point", "coordinates": [ -71.1350614, 42.3393489 ] } },
{ "type": "Feature", "properties": { "osmid": "3061424277", "amenity": "bicycle_rental", "capacity": "14", "name": "Blue Bikes - Washington St. at Waltham St.", "network": "Blue Bikes" }, "geometry": { "type": "Point", "coordinates": [ -71.068922, 42.341522 ] } },
{ "type": "Feature", "properties": { "osmid": "3061424278", "amenity": "bicycle_rental", "capacity": "19", "name": "Blue Bikes - Yawkey Way at Boylston St.", "network": "Blue Bikes" }, "geometry": { "type": "Point", "coordinates": [ -71.09788, 42.344763 ] } },
{ "type": "Feature", "properties": { "osmid": "3061424933", "amenity": "bicycle_rental", "capacity": "15", "name": "Blue Bikes - Colleges of the Fenway", "network": "Blue Bikes" }, "geometry": { "type": "Point", "coordinates": [ -71.1008718, 42.3400317 ] } },
{ "type": "Feature", "properties": { "osmid": "3061424934", "amenity": "bicycle_rental", "capacity": "13", "name": "Blue Bikes - Columbus Ave. at Mass. Ave.", "network": "Blue Bikes" }, "geometry": { "type": "Point", "coordinates": [ -71.0813947, 42.3405724 ] } },
{ "type": "Feature", "properties": { "osmid": "3061424935", "amenity": "bicycle_rental", "capacity": "19", "name": "Blue Bikes - Congress \/ Sleeper", "network": "Blue Bikes" }, "geometry": { "type": "Point", "coordinates": [ -71.0494334, 42.3510413 ] } },
{ "type": "Feature", "properties": { "osmid": "3061424936", "amenity": "bicycle_rental", "capacity": "15", "name": "Blue Bikes - Conway Park - Somerville Avenue", "network": "Blue Bikes" }, "geometry": { "type": "Point", "coordinates": [ -71.107593, 42.383405 ] } },
{ "type": "Feature", "properties": { "osmid": "3061424937", "amenity": "bicycle_rental", "capacity": "19", "name": "Blue Bikes - Coolidge Corner - Beacon St \/ Centre St", "network": "Blue Bikes" }, "geometry": { "type": "Point", "coordinates": [ -71.1233184, 42.3415598 ] } },
{ "type": "Feature", "properties": { "osmid": "3061424938", "amenity": "bicycle_rental", "capacity": "18", "name": "Blue Bikes - Cross St. at Hanover St.", "network": "Blue Bikes" }, "geometry": { "type": "Point", "coordinates": [ -71.056067, 42.362811 ] } },
{ "type": "Feature", "properties": { "osmid": "3061424939", "amenity": "bicycle_rental", "capacity": "18", "name": "Blue Bikes - Dana Park", "network": "Blue Bikes" }, "geometry": { "type": "Point", "coordinates": [ -71.107437, 42.361589 ] } },
{ "type": "Feature", "properties": { "osmid": "3061424940", "amenity": "bicycle_rental", "capacity": "17", "name": "Blue Bikes - Danehy Park", "network": "Blue Bikes" }, "geometry": { "type": "Point", "coordinates": [ -71.132788, 42.388966 ] } },
{ "type": "Feature", "properties": { "osmid": "3061424941", "amenity": "bicycle_rental", "capacity": "19", "name": "Blue Bikes - Day Boulevard", "network": "Blue Bikes" }, "geometry": { "type": "Point", "coordinates": [ -71.023739, 42.336448 ] } },
{ "type": "Feature", "properties": { "osmid": "3061424942", "amenity": "bicycle_rental", "capacity": "15", "name": "Blue Bikes - Dorchester Ave. at Gillette Park", "network": "Blue Bikes" }, "geometry": { "type": "Point", "coordinates": [ -71.0573676, 42.3440265 ] } },
{ "type": "Feature", "properties": { "osmid": "3061424943", "amenity": "bicycle_rental", "capacity": "15", "name": "Blue Bikes - Dudley Square", "network": "Blue Bikes" }, "geometry": { "type": "Point", "coordinates": [ -71.0841625, 42.3286227 ] } },
{ "type": "Feature", "properties": { "osmid": "3061425957", "amenity": "bicycle_rental", "capacity": "21", "name": "Blue Bikes", "network": "Blue Bikes" }, "geometry": { "type": "Point", "coordinates": [ -71.1218697, 42.3721291 ] } },
{ "type": "Feature", "properties": { "osmid": "3061426124", "amenity": "bicycle_rental", "capacity": "19", "name": "Blue Bikes - Porter Square Station", "network": "Blue Bikes" }, "geometry": { "type": "Point", "coordinates": [ -71.119084, 42.387995 ] } },
{ "type": "Feature", "properties": { "osmid": "3061426125", "amenity": "bicycle_rental", "capacity": "19", "name": "Blue Bikes - Post Office Square", "network": "Blue Bikes" }, "geometry": { "type": "Point", "coordinates": [ -71.055407, 42.356755 ] } },
{ "type": "Feature", "properties": { "osmid": "3061426127", "amenity": "bicycle_rental", "capacity": "24", "name": "Blue Bikes - Prudential Center \/ Belvidere", "network": "Blue Bikes" }, "geometry": { "type": "Point", "coordinates": [ -71.082578, 42.345959 ] } },
{ "type": "Feature", "properties": { "osmid": "3061426128", "amenity": "bicycle_rental", "capacity": "14", "name": "Blue Bikes - Roxbury Crossing Station", "network": "Blue Bikes" }, "geometry": { "type": "Point", "coordinates": [ -71.095171, 42.331184 ] } },
{ "type": "Feature", "properties": { "osmid": "3061426129", "amenity": "bicycle_rental", "capacity": "15", "name": "Blue Bikes - Seaport Hotel", "network": "Blue Bikes" }, "geometry": { "type": "Point", "coordinates": [ -71.041747, 42.348833 ] } },
{ "type": "Feature", "properties": { "osmid": "3061426130", "amenity": "bicycle_rental", "capacity": "15", "name": "Blue Bikes - Somerville City Hall", "network": "Blue Bikes" }, "geometry": { "type": "Point", "coordinates": [ -71.09812, 42.386844 ] } },
{ "type": "Feature", "properties": { "osmid": "3061426131", "amenity": "bicycle_rental", "capacity": "19", "name": "Blue Bikes - Stuart St. at Charles St.", "network": "Blue Bikes" }, "geometry": { "type": "Point", "coordinates": [ -71.066289, 42.351146 ] } },
{ "type": "Feature", "properties": { "osmid": "3061426132", "amenity": "bicycle_rental", "capacity": "27", "name": "Blue Bikes - TD Garden - Causeway at Portal Park #2", "network": "Blue Bikes" }, "geometry": { "type": "Point", "coordinates": [ -71.059914, 42.366222 ] } },
{ "type": "Feature", "properties": { "osmid": "3061426234", "amenity": "bicycle_rental", "capacity": "14", "name": "Blue Bikes - Harvard University Housing - 115 Putnam Ave at Peabody Terrace", "network": "Blue Bikes" }, "geometry": { "type": "Point", "coordinates": [ -71.114214, 42.366621 ] } },
{ "type": "Feature", "properties": { "osmid": "3061426235", "amenity": "bicycle_rental", "capacity": "17", "name": "Blue Bikes - Harvard University Radcliffe Quadrangle at Shepard St \/ Garden St", "network": "Blue Bikes" }, "geometry": { "type": "Point", "coordinates": [ -71.125107, 42.380287 ] } },
{ "type": "Feature", "properties": { "osmid": "3061427033", "amenity": "bicycle_rental", "capacity": "19", "name": "Blue Bikes - Harvard Law School at Mass Ave \/ Jarvis St", "network": "Blue Bikes" }, "geometry": { "type": "Point", "coordinates": [ -71.119928, 42.3783731 ] } },
{ "type": "Feature", "properties": { "osmid": "3061427034", "amenity": "bicycle_rental", "capacity": "14", "name": "Blue Bikes - Harvard Real Estate - Brighton Mills - 370 Western Ave", "network": "Blue Bikes" }, "geometry": { "type": "Point", "coordinates": [ -71.1377598, 42.3615184 ] } },
{ "type": "Feature", "properties": { "osmid": "3061427035", "amenity": "bicycle_rental", "capacity": "14", "name": "Blue Bikes", "network": "Blue Bikes" }, "geometry": { "type": "Point", "coordinates": [ -71.1210019, 42.3733172 ] } },
{ "type": "Feature", "properties": { "osmid": "3061427036", "amenity": "bicycle_rental", "capacity": "16", "name": "Blue Bikes - Harvard Square at Mass Ave\/ Dunster", "network": "Blue Bikes" }, "geometry": { "type": "Point", "coordinates": [ -71.1185613, 42.3732357 ] } },
{ "type": "Feature", "properties": { "osmid": "3061427037", "amenity": "bicycle_rental", "capacity": "17", "name": "Blue Bikes - Harvard University \/ SEAS Cruft-Pierce Halls at 29 Oxford St", "network": "Blue Bikes" }, "geometry": { "type": "Point", "coordinates": [ -71.116919, 42.3779201 ] } },
{ "type": "Feature", "properties": { "osmid": "3061427038", "amenity": "bicycle_rental", "capacity": "15", "name": "Blue Bikes - Harvard University Gund Hall at Quincy St \/ Kirkland S", "network": "Blue Bikes" }, "geometry": { "type": "Point", "coordinates": [ -71.114025, 42.376369 ] } },
{ "type": "Feature", "properties": { "osmid": "3061427039", "amenity": "bicycle_rental", "capacity": "13", "name": "Blue Bikes - Harvard University Housing - 111 Western Ave. at Soldiers Field Park", "network": "Blue Bikes" }, "geometry": { "type": "Point", "coordinates": [ -71.1184111, 42.3644647 ] } },
{ "type": "Feature", "properties": { "osmid": "3061427040", "amenity": "bicycle_rental", "capacity": "15", "name": "Blue Bikes - Hyde Square at Barbara St", "network": "Blue Bikes" }, "geometry": { "type": "Point", "coordinates": [ -71.110833, 42.320998 ] } },
{ "type": "Feature", "properties": { "osmid": "3061427041", "amenity": "bicycle_rental", "capacity": "17", "name": "Blue Bikes - ID Building East", "network": "Blue Bikes" }, "geometry": { "type": "Point", "coordinates": [ -71.028664, 42.344827 ] } },
{ "type": "Feature", "properties": { "osmid": "3061427042", "amenity": "bicycle_rental", "capacity": "19", "name": "Blue Bikes - ID Building West", "network": "Blue Bikes" }, "geometry": { "type": "Point", "coordinates": [ -71.031614, 42.344796 ] } },
{ "type": "Feature", "properties": { "osmid": "3061427043", "amenity": "bicycle_rental", "capacity": "19", "name": "Blue Bikes - Inman Square at Vellucci Plaza \/ Hampshire St", "network": "Blue Bikes" }, "geometry": { "type": "Point", "coordinates": [ -71.101427, 42.374035 ] } },
{ "type": "Feature", "properties": { "osmid": "3061427044", "amenity": "bicycle_rental", "capacity": "14", "name": "Blue Bikes - Innovation Lab - 125 Western Ave. at Batten Way", "network": "Blue Bikes" }, "geometry": { "type": "Point", "coordinates": [ -71.1245865, 42.363732 ] } },
{ "type": "Feature", "properties": { "osmid": "3061427045", "amenity": "bicycle_rental", "capacity": "13", "name": "Blue Bikes - JFK \/ UMASS Station", "network": "Blue Bikes" }, "geometry": { "type": "Point", "coordinates": [ -71.051122, 42.320494 ] } },
{ "type": "Feature", "properties": { "osmid": "3061427046", "amenity": "bicycle_rental", "capacity": "15", "name": "Blue Bikes - JFK Crossing at Harvard St. \/ Thorndike St.", "network": "Blue Bikes" }, "geometry": { "type": "Point", "coordinates": [ -71.128374, 42.346563 ] } },
{ "type": "Feature", "properties": { "osmid": "3061427047", "amenity": "bicycle_rental", "capacity": "15", "name": "Blue Bikes - JP Center - Centre Street at Myrtle Street", "network": "Blue Bikes" }, "geometry": { "type": "Point", "coordinates": [ -71.11414, 42.313156 ] } },
{ "type": "Feature", "properties": { "osmid": "3061427049", "amenity": "bicycle_rental", "capacity": "19", "name": "Blue Bikes - Jackson Square T at Centre St", "network": "Blue Bikes" }, "geometry": { "type": "Point", "coordinates": [ -71.100164, 42.322913 ] } },
{ "type": "Feature", "properties": { "osmid": "3061427050", "amenity": "bicycle_rental", "capacity": "17", "name": "Blue Bikes - Kendall T at Main St", "network": "Blue Bikes" }, "geometry": { "type": "Point", "coordinates": [ -71.08497, 42.362457 ] } },
{ "type": "Feature", "properties": { "osmid": "3061427051", "amenity": "bicycle_rental", "capacity": "19", "name": "Blue Bikes - Kenmore Sq \/ Comm Ave", "network": "Blue Bikes" }, "geometry": { "type": "Point", "coordinates": [ -71.096831, 42.349046 ] } },
{ "type": "Feature", "properties": { "osmid": "3061427052", "amenity": "bicycle_rental", "capacity": "15", "name": "Blue Bikes - Lafayette Square at Mass Ave \/ Main St \/ Columbia St", "network": "Blue Bikes" }, "geometry": { "type": "Point", "coordinates": [ -71.1004675, 42.3633303 ] } },
{ "type": "Feature", "properties": { "osmid": "3061427053", "amenity": "bicycle_rental", "capacity": "10", "name": "Blue Bikes - Landmark Centre", "network": "Blue Bikes" }, "geometry": { "type": "Point", "coordinates": [ -71.102221, 42.343912 ] } },
{ "type": "Feature", "properties": { "osmid": "3061427054", "amenity": "bicycle_rental", "capacity": "18", "name": "Blue Bikes - Lechmere Station at Cambridge St \/ First St", "network": "Blue Bikes" }, "geometry": { "type": "Point", "coordinates": [ -71.076529, 42.370677 ] } },
{ "type": "Feature", "properties": { "osmid": "3061427055", "amenity": "bicycle_rental", "capacity": "13", "name": "Blue Bikes - Lewis Wharf - Atlantic Ave.", "network": "Blue Bikes" }, "geometry": { "type": "Point", "coordinates": [ -71.050877, 42.363871 ] } },
{ "type": "Feature", "properties": { "osmid": "3061427057", "amenity": "bicycle_rental", "capacity": "15", "name": "Blue Bikes - Longwood Ave \/ Binney St", "network": "Blue Bikes" }, "geometry": { "type": "Point", "coordinates": [ -71.1065, 42.338629 ] } },
{ "type": "Feature", "properties": { "osmid": "3061427058", "amenity": "bicycle_rental", "capacity": "15", "name": "Blue Bikes - Longwood Ave\/Riverway", "network": "Blue Bikes" }, "geometry": { "type": "Point", "coordinates": [ -71.1098401, 42.3401841 ] } },
{ "type": "Feature", "properties": { "osmid": "3061427059", "amenity": "bicycle_rental", "capacity": "19", "name": "Blue Bikes - Lower Cambridgeport at Magazine St\/Riverside Rd", "network": "Blue Bikes" }, "geometry": { "type": "Point", "coordinates": [ -71.113687, 42.356954 ] } },
{ "type": "Feature", "properties": { "osmid": "3061427060", "amenity": "bicycle_rental", "capacity": "23", "name": "Blue Bikes - MIT Stata Center at Vassar St \/ Main St", "network": "Blue Bikes" }, "geometry": { "type": "Point", "coordinates": [ -71.0915241, 42.3619245 ] } },
{ "type": "Feature", "properties": { "osmid": "3061427061", "amenity": "bicycle_rental", "capacity": "25", "name": "Blue Bikes - MIT at Mass Ave \/ Amherst St", "network": "Blue Bikes" }, "geometry": { "type": "Point", "coordinates": [ -71.0932769, 42.3583015 ] } },
{ "type": "Feature", "properties": { "osmid": "3061427063", "amenity": "bicycle_rental", "capacity": "20", "name": "Blue Bikes - Mayor Martin J. Walsh - 28 State St.", "network": "Blue Bikes" }, "geometry": { "type": "Point", "coordinates": [ -71.057629, 42.35892 ] } },
{ "type": "Feature", "properties": { "osmid": "3061427064", "amenity": "bicycle_rental", "capacity": "19", "name": "Blue Bikes - Milk St at India St", "network": "Blue Bikes" }, "geometry": { "type": "Point", "coordinates": [ -71.052984, 42.358508 ] } },
{ "type": "Feature", "properties": { "osmid": "3061427066", "amenity": "bicycle_rental", "capacity": "15", "name": "Blue Bikes - New Balance - 20 Guest St.", "network": "Blue Bikes" }, "geometry": { "type": "Point", "coordinates": [ -71.147782, 42.357402 ] } },
{ "type": "Feature", "properties": { "osmid": "3061427067", "amenity": "bicycle_rental", "capacity": "14", "name": "Blue Bikes - One Broadway \/ Kendall Sq at Main St \/ 3rd St", "network": "Blue Bikes" }, "geometry": { "type": "Point", "coordinates": [ -71.084105, 42.362613 ] } },
{ "type": "Feature", "properties": { "osmid": "3061427068", "amenity": "bicycle_rental", "capacity": "19", "name": "Blue Bikes - One Kendall Square at Hampshire St \/ Portland St", "network": "Blue Bikes" }, "geometry": { "type": "Point", "coordinates": [ -71.09169, 42.366277 ] } },
{ "type": "Feature", "properties": { "osmid": "3061427070", "amenity": "bicycle_rental", "capacity": "18", "name": "Blue Bikes - Packards Corner - Comm. Ave. at Brighton Ave.", "network": "Blue Bikes" }, "geometry": { "type": "Point", "coordinates": [ -71.123831, 42.352261 ] } },
{ "type": "Feature", "properties": { "osmid": "3061427071", "amenity": "bicycle_rental", "capacity": "14", "name": "Blue Bikes - Rowes Wharf - Atlantic Ave", "network": "Blue Bikes" }, "geometry": { "type": "Point", "coordinates": [ -71.0505984, 42.3571565 ] } },
{ "type": "Feature", "properties": { "osmid": "3061427072", "amenity": "bicycle_rental", "capacity": "12", "name": "Blue Bikes - Ruggles Station \/ Columbus Ave.", "network": "Blue Bikes" }, "geometry": { "type": "Point", "coordinates": [ -71.0880651, 42.3362445 ] } },
{ "type": "Feature", "properties": { "osmid": "3061427073", "amenity": "bicycle_rental", "capacity": "18", "name": "Blue Bikes - Seaport Square - Seaport Blvd. at Boston Wharf", "network": "Blue Bikes" }, "geometry": { "type": "Point", "coordinates": [ -71.0454405, 42.3518662 ] } },
{ "type": "Feature", "properties": { "osmid": "3061427074", "amenity": "bicycle_rental", "capacity": "46", "name": "Blue Bikes - South Station - 700 Atlantic Ave.", "network": "Blue Bikes" }, "geometry": { "type": "Point", "coordinates": [ -71.055547, 42.352175 ] } },
{ "type": "Feature", "properties": { "osmid": "3061427085", "amenity": "bicycle_rental", "capacity": "26", "name": "Blue Bikes - TD Garden - Causeway at Portal Park #1", "network": "Blue Bikes" }, "geometry": { "type": "Point", "coordinates": [ -71.060515, 42.365942 ] } },
{ "type": "Feature", "properties": { "osmid": "3061428701", "amenity": "bicycle_rental", "capacity": "15", "name": "Blue Bikes - New Balance Store - Boylston at Dartmouth", "network": "Blue Bikes" }, "geometry": { "type": "Point", "coordinates": [ -71.07655, 42.350413 ] } },
{ "type": "Feature", "properties": { "osmid": "3061428702", "amenity": "bicycle_rental", "capacity": "16", "name": "Blue Bikes - Newbury St \/ Hereford St", "network": "Blue Bikes" }, "geometry": { "type": "Point", "coordinates": [ -71.085954, 42.348717 ] } },
{ "type": "Feature", "properties": { "osmid": "3061428703", "amenity": "bicycle_rental", "capacity": "15", "name": "Blue Bikes - Newmarket Square", "network": "Blue Bikes" }, "geometry": { "type": "Point", "coordinates": [ -71.066498, 42.326599 ] } },
{ "type": "Feature", "properties": { "osmid": "3061428704", "amenity": "bicycle_rental", "capacity": "15", "name": "Blue Bikes - Northeastern U \/ North Parking Lot", "network": "Blue Bikes" }, "geometry": { "type": "Point", "coordinates": [ -71.090179, 42.341814 ] } },
{ "type": "Feature", "properties": { "osmid": "3061428705", "amenity": "bicycle_rental", "capacity": "19", "name": "Blue Bikes - ONeill Library", "network": "Blue Bikes" }, "geometry": { "type": "Point", "coordinates": [ -71.129042, 42.392766 ] } },
{ "type": "Feature", "properties": { "osmid": "3061429103", "amenity": "bicycle_rental", "capacity": "15", "name": "Blue Bikes - Wilson Square", "network": "Blue Bikes" }, "geometry": { "type": "Point", "coordinates": [ -71.113341, 42.385582 ] } },
{ "type": "Feature", "properties": { "osmid": "3061429311", "amenity": "bicycle_rental", "capacity": "14", "name": "Blue Bikes - Union Square - Brighton Ave. at Cambridge St.", "network": "Blue Bikes" }, "geometry": { "type": "Point", "coordinates": [ -71.137313, 42.353334 ] } },
{ "type": "Feature", "properties": { "osmid": "3061429312", "amenity": "bicycle_rental", "capacity": "15", "name": "Blue Bikes - Uphams Corner - Ramsey St at Dudley St", "network": "Blue Bikes" }, "geometry": { "type": "Point", "coordinates": [ -71.065421, 42.317225 ] } },
{ "type": "Feature", "properties": { "osmid": "3061429313", "amenity": "bicycle_rental", "capacity": "19", "name": "Blue Bikes - Washington St. at Rutland St.", "network": "Blue Bikes" }, "geometry": { "type": "Point", "coordinates": [ -71.074182, 42.338623 ] } },
{ "type": "Feature", "properties": { "osmid": "3061429333", "amenity": "bicycle_rental", "capacity": "15", "name": "Blue Bikes - The Esplanade - Beacon St. at Arlington St.", "network": "Blue Bikes" }, "geometry": { "type": "Point", "coordinates": [ -71.07278, 42.355596 ] } },
{ "type": "Feature", "properties": { "osmid": "3061429334", "amenity": "bicycle_rental", "capacity": "15", "name": "Blue Bikes - Tremont St \/ W Newton St", "network": "Blue Bikes" }, "geometry": { "type": "Point", "coordinates": [ -71.076847, 42.341332 ] } },
{ "type": "Feature", "properties": { "osmid": "3061429335", "amenity": "bicycle_rental", "capacity": "15", "name": "Blue Bikes - Tremont St. at Berkeley St.", "network": "Blue Bikes" }, "geometry": { "type": "Point", "coordinates": [ -71.069616, 42.345392 ] } },
{ "type": "Feature", "properties": { "osmid": "3061429337", "amenity": "bicycle_rental", "capacity": "14", "name": "Blue Bikes - Washington St. at Lenox St.", "network": "Blue Bikes" }, "geometry": { "type": "Point", "coordinates": [ -71.0790969, 42.3348756 ] } },
{ "type": "Feature", "properties": { "osmid": "3061429338", "amenity": "bicycle_rental", "capacity": "17", "name": "Blue Bikes - West Broadway at Dorchester St", "network": "Blue Bikes" }, "geometry": { "type": "Point", "coordinates": [ -71.045859, 42.335693 ] } },
{ "type": "Feature", "properties": { "osmid": "3869527706", "amenity": "bicycle_rental", "capacity": "18", "name": "Blue Bikes - Main St at Ames St", "network": "Blue Bikes" }, "geometry": { "type": "Point", "coordinates": [ -71.0883144, 42.362353 ] } },
{ "type": "Feature", "properties": { "osmid": "4191860646", "amenity": "bicycle_rental", "capacity": null, "name": "Urban AdvenTours", "network": null }, "geometry": { "type": "Point", "coordinates": [ -71.0524258, 42.3615813 ] } },
{ "type": "Feature", "properties": { "osmid": "4554454512", "amenity": "bicycle_rental", "capacity": null, "name": null, "network": "Blue Bikes" }, "geometry": { "type": "Point", "coordinates": [ -71.0874882, 42.3636037 ] } },
{ "type": "Feature", "properties": { "osmid": "4873109465", "amenity": "bicycle_rental", "capacity": null, "name": "Blue Bikes", "network": "Blue Bikes" }, "geometry": { "type": "Point", "coordinates": [ -71.1153972, 42.3090828 ] } },
{ "type": "Feature", "properties": { "osmid": "4888215440", "amenity": "bicycle_rental", "capacity": "19", "name": "Blue Bikes - University Park at Sindey Street", "network": "Blue Bikes" }, "geometry": { "type": "Point", "coordinates": [ -71.1000623, 42.3626749 ] } },
{ "type": "Feature", "properties": { "osmid": "5391289112", "amenity": "bicycle_rental", "capacity": null, "name": null, "network": "Blue Bikes" }, "geometry": { "type": "Point", "coordinates": [ -71.0720921, 42.3720999 ] } },
{ "type": "Feature", "properties": { "osmid": "5656776135", "amenity": "bicycle_rental", "capacity": null, "name": "Blue Bikes - UMass Boston", "network": "Blue Bikes" }, "geometry": { "type": "Point", "coordinates": [ -71.0402639, 42.3139206 ] } },
{ "type": "Feature", "properties": { "osmid": "6003353188", "amenity": "bicycle_rental", "capacity": null, "name": null, "network": null }, "geometry": { "type": "Point", "coordinates": [ -71.0638383, 42.3749177 ] } },
{ "type": "Feature", "properties": { "osmid": "6025308428", "amenity": "bicycle_rental", "capacity": null, "name": null, "network": "BlueBikes" }, "geometry": { "type": "Point", "coordinates": [ -71.0161307, 42.383568 ] } },
{ "type": "Feature", "properties": { "osmid": "6114648233", "amenity": "bicycle_rental", "capacity": null, "name": null, "network": "Blue Bikes" }, "geometry": { "type": "Point", "coordinates": [ -71.1039048, 42.357699 ] } },
{ "type": "Feature", "properties": { "osmid": "6117463859", "amenity": "bicycle_rental", "capacity": null, "name": null, "network": "Blue Bikes" }, "geometry": { "type": "Point", "coordinates": [ -71.0804444, 42.3616627 ] } },
{ "type": "Feature", "properties": { "osmid": "6332131550", "amenity": "bicycle_rental", "capacity": null, "name": "Blue Bikes - One Brigham Circle", "network": "BlueBikes" }, "geometry": { "type": "Point", "coordinates": [ -71.1043931, 42.3339249 ] } },
{ "type": "Feature", "properties": { "osmid": "6636088183", "amenity": "bicycle_rental", "capacity": null, "name": null, "network": null }, "geometry": { "type": "Point", "coordinates": [ -71.1141444, 42.3009201 ] } },
{ "type": "Feature", "properties": { "osmid": "6745696329", "amenity": "bicycle_rental", "capacity": "15", "name": "Fresh Pond Reservation", "network": "Bluebikes" }, "geometry": { "type": "Point", "coordinates": [ -71.1428838, 42.3832378 ] } },
{ "type": "Feature", "properties": { "osmid": "6765244565", "amenity": "bicycle_rental", "capacity": null, "name": null, "network": "Bluebikes" }, "geometry": { "type": "Point", "coordinates": [ -71.1041669, 42.3169268 ] } },
{ "type": "Feature", "properties": { "osmid": "6883962656", "amenity": "bicycle_rental", "capacity": "14", "name": "Blue Bikes - Washington St at Myrtle St - Somerville", "network": "Blue Bikes" }, "geometry": { "type": "Point", "coordinates": [ -71.0838121, 42.3817667 ] } },
{ "type": "Feature", "properties": { "osmid": "6883962657", "amenity": "bicycle_rental", "capacity": "15", "name": "Blue Bikes - Broadway St at Mt Pleasant St - Somerville", "network": "Blue Bikes" }, "geometry": { "type": "Point", "coordinates": [ -71.0783652, 42.3861337 ] } },
{ "type": "Feature", "properties": { "osmid": "6883962658", "amenity": "bicycle_rental", "capacity": "15", "name": "Blue Bikes - East Somerville Library - Somerville", "network": "Blue Bikes" }, "geometry": { "type": "Point", "coordinates": [ -71.0838215, 42.3878786 ] } },
{ "type": "Feature", "properties": { "osmid": "6883962659", "amenity": "bicycle_rental", "capacity": "15", "name": "Blue Bikes - Foss Park - Somerville", "network": "Blue Bikes" }, "geometry": { "type": "Point", "coordinates": [ -71.0904134, 42.3910358 ] } },
{ "type": "Feature", "properties": { "osmid": "6883962660", "amenity": "bicycle_rental", "capacity": "15", "name": "Blue Bikes - Edgerly Education Center - Somerville", "network": "Blue Bikes" }, "geometry": { "type": "Point", "coordinates": [ -71.0870941, 42.3871566 ] } }
]
}
