{
"type": "FeatureCollection",
"features": [
{ "type": "Feature", "properties": { "osmid": "260743043", "amenity": "bicycle_rental", "capacity": "62", "name": "Bourdon - Pont Morland", "network": "Velib'" }, "geometry": { "type": "Point", "coordinates": [ 2.3658974, 48.8476495 ] } },
{ "type": "Feature", "properties": { "osmid": "282489109", "amenity": "bicycle_rental", "capacity": "18", "name": "Petites Ecuries - Faubourg Poissonnière", "network": "Vélib'" }, "geometry": { "type": "Point", "coordinates": [ 2.3483713, 48.8739628 ] } },
{ "type": "Feature", "properties": { "osmid": "343520022", "amenity": "bicycle_rental", "capacity": "25", "name": "Romain Rolland", "network": "Vélib’" }, "geometry": { "type": "Point", "coordinates": [ 2.3230121, 48.8203312 ] } },
{ "type": "Feature", "properties": { "osmid": "367915907", "amenity": "bicycle_rental", "capacity": "46", "name": "Nation Voltaire", "network": "Vélib’" }, "geometry": { "type": "Point", "coordinates": [ 2.394929, 48.849276 ] } },
{ "type": "Feature", "properties": { "osmid": "416674461", "amenity": "bicycle_rental", "capacity": "31", "name": "Louis Blanc - Jemmapes", "network": "Vélib'" }, "geometry": { "type": "Point", "coordinates": [ 2.3686218, 48.879237 ] } },
{ "type": "Feature", "properties": { "osmid": "428508903", "amenity": "bicycle_rental", "capacity": "29", "name": "Gare du Nord - Dunkerque", "network": "Vélib’" }, "geometry": { "type": "Point", "coordinates": [ 2.3528307, 48.8803674 ] } },
{ "type": "Feature", "properties": { "osmid": "429178442", "amenity": "bicycle_rental", "capacity": "24", "name": "La Jarry - Place Diderot", "network": "Vélib’" }, "geometry": { "type": "Point", "coordinates": [ 2.4519981, 48.8497412 ] } },
{ "type": "Feature", "properties": { "osmid": "433312582", "amenity": "bicycle_rental", "capacity": "21", "name": "Belleville · Pré Saint-Gervais", "network": "Vélib'" }, "geometry": { "type": "Point", "coordinates": [ 2.392949, 48.875466 ] } },
{ "type": "Feature", "properties": { "osmid": "436617783", "amenity": "bicycle_rental", "capacity": "15", "name": "Saint-Bon - Rivoli", "network": "Vélib'" }, "geometry": { "type": "Point", "coordinates": [ 2.3502718, 48.8580787 ] } },
{ "type": "Feature", "properties": { "osmid": "439852117", "amenity": "bicycle_rental", "capacity": "36", "name": "Temple · Jean-Pierre Timbaud", "network": "Vélib'" }, "geometry": { "type": "Point", "coordinates": [ 2.3661622, 48.8643764 ] } },
{ "type": "Feature", "properties": { "osmid": "449755529", "amenity": "bicycle_rental", "capacity": "55", "name": "Parvis Corentin Celton", "network": "Vélib’" }, "geometry": { "type": "Point", "coordinates": [ 2.2783873, 48.827525 ] } },
{ "type": "Feature", "properties": { "osmid": "496128416", "amenity": "bicycle_rental", "capacity": "34", "name": "Traversière · Ledru-Rollin", "network": "Vélib'" }, "geometry": { "type": "Point", "coordinates": [ 2.3759061, 48.850789 ] } },
{ "type": "Feature", "properties": { "osmid": "496815520", "amenity": "bicycle_rental", "capacity": "39", "name": "Victor Hugo - La Pompe", "network": "Vélib'" }, "geometry": { "type": "Point", "coordinates": [ 2.2814412, 48.8680759 ] } },
{ "type": "Feature", "properties": { "osmid": "497867252", "amenity": "bicycle_rental", "capacity": "23", "name": "Charonne · Pierre Bayle", "network": "Vélib’" }, "geometry": { "type": "Point", "coordinates": [ 2.3904047, 48.8584172 ] } },
{ "type": "Feature", "properties": { "osmid": "561423725", "amenity": "bicycle_rental", "capacity": "50", "name": "Stalingrad - Rigollots", "network": "Vélib’" }, "geometry": { "type": "Point", "coordinates": [ 2.4553752, 48.8500866 ] } },
{ "type": "Feature", "properties": { "osmid": "598000513", "amenity": "bicycle_rental", "capacity": "17", "name": "Geoffroy-Saint-Hilaire · Saint-Marcel", "network": "Vélib'" }, "geometry": { "type": "Point", "coordinates": [ 2.3568742, 48.8390771 ] } },
{ "type": "Feature", "properties": { "osmid": "653370632", "amenity": "bicycle_rental", "capacity": null, "name": "Saint-Romain Cherche-Midi", "network": "Vélib'" }, "geometry": { "type": "Point", "coordinates": [ 2.3212693, 48.8470337 ] } },
{ "type": "Feature", "properties": { "osmid": "733197821", "amenity": "bicycle_rental", "capacity": null, "name": null, "network": null }, "geometry": { "type": "Point", "coordinates": [ 2.2676397, 48.8849062 ] } },
{ "type": "Feature", "properties": { "osmid": "782578990", "amenity": "bicycle_rental", "capacity": "17", "name": "Institut de France", "network": "Vélib'" }, "geometry": { "type": "Point", "coordinates": [ 2.3358845, 48.8576071 ] } },
{ "type": "Feature", "properties": { "osmid": "822581575", "amenity": "bicycle_rental", "capacity": "21", "name": "Le Brix et Mesmin - Jourdan", "network": "Vélib’" }, "geometry": { "type": "Point", "coordinates": [ 2.3278878, 48.822396 ] } },
{ "type": "Feature", "properties": { "osmid": "942587005", "amenity": "bicycle_rental", "capacity": "31", "name": "Crevaux - Bugeaud", "network": "Vélib'" }, "geometry": { "type": "Point", "coordinates": [ 2.281151, 48.8707206 ] } },
{ "type": "Feature", "properties": { "osmid": "968924201", "amenity": "bicycle_rental", "capacity": "25", "name": "Arsonval - Falguière", "network": "Velib'" }, "geometry": { "type": "Point", "coordinates": [ 2.3130691, 48.8404224 ] } },
{ "type": "Feature", "properties": { "osmid": "968924212", "amenity": "bicycle_rental", "capacity": "33", "name": "Pasteur - Cotentin", "network": "Vélib’" }, "geometry": { "type": "Point", "coordinates": [ 2.3161921, 48.838909 ] } },
{ "type": "Feature", "properties": { "osmid": "1023556484", "amenity": "bicycle_rental", "capacity": null, "name": null, "network": null }, "geometry": { "type": "Point", "coordinates": [ 2.4096248, 48.8535427 ] } },
{ "type": "Feature", "properties": { "osmid": "1054432222", "amenity": "bicycle_rental", "capacity": null, "name": null, "network": null }, "geometry": { "type": "Point", "coordinates": [ 2.2536645, 48.8320133 ] } },
{ "type": "Feature", "properties": { "osmid": "1085585109", "amenity": "bicycle_rental", "capacity": null, "name": null, "network": null }, "geometry": { "type": "Point", "coordinates": [ 2.2505979, 48.8284108 ] } },
{ "type": "Feature", "properties": { "osmid": "1088219409", "amenity": "bicycle_rental", "capacity": null, "name": null, "network": null }, "geometry": { "type": "Point", "coordinates": [ 2.2487932, 48.8258235 ] } },
{ "type": "Feature", "properties": { "osmid": "1252378652", "amenity": "bicycle_rental", "capacity": null, "name": null, "network": null }, "geometry": { "type": "Point", "coordinates": [ 2.2966566, 48.8993149 ] } },
{ "type": "Feature", "properties": { "osmid": "1341379979", "amenity": "bicycle_rental", "capacity": "32", "name": "Charonne - Philippe-Auguste", "network": "Vélib'" }, "geometry": { "type": "Point", "coordinates": [ 2.3905225, 48.8555971 ] } },
{ "type": "Feature", "properties": { "osmid": "1432236932", "amenity": "bicycle_rental", "capacity": "28", "name": "Gare de Reuilly · Picpus", "network": "Vélib'" }, "geometry": { "type": "Point", "coordinates": [ 2.3972686, 48.8425887 ] } },
{ "type": "Feature", "properties": { "osmid": "1490016248", "amenity": "bicycle_rental", "capacity": "23", "name": "Marché aux fleurs", "network": "Velib'" }, "geometry": { "type": "Point", "coordinates": [ 2.3473369, 48.8552293 ] } },
{ "type": "Feature", "properties": { "osmid": "1500156050", "amenity": "bicycle_rental", "capacity": "46", "name": "Regard · Rennes", "network": null }, "geometry": { "type": "Point", "coordinates": [ 2.3269678, 48.8475744 ] } },
{ "type": "Feature", "properties": { "osmid": "1640522615", "amenity": "bicycle_rental", "capacity": "63", "name": "Jean Macé · Faidherbe", "network": "Vélib’" }, "geometry": { "type": "Point", "coordinates": [ 2.383317, 48.8531925 ] } },
{ "type": "Feature", "properties": { "osmid": "1673107081", "amenity": "bicycle_rental", "capacity": null, "name": null, "network": null }, "geometry": { "type": "Point", "coordinates": [ 2.3925572, 48.8559235 ] } },
{ "type": "Feature", "properties": { "osmid": "1711217388", "amenity": "bicycle_rental", "capacity": "50", "name": "Champeaux - Gallieni", "network": "Vélib’" }, "geometry": { "type": "Point", "coordinates": [ 2.4161498, 48.864512 ] } },
{ "type": "Feature", "properties": { "osmid": "1764095108", "amenity": "bicycle_rental", "capacity": null, "name": null, "network": "Vélib'" }, "geometry": { "type": "Point", "coordinates": [ 2.3109585, 48.8848869 ] } },
{ "type": "Feature", "properties": { "osmid": "1877594313", "amenity": "bicycle_rental", "capacity": null, "name": null, "network": null }, "geometry": { "type": "Point", "coordinates": [ 2.3243054, 48.8878425 ] } },
{ "type": "Feature", "properties": { "osmid": "1926982931", "amenity": "bicycle_rental", "capacity": "43", "name": "Gare Montparnasse · Arrivée", "network": "Vélib'" }, "geometry": { "type": "Point", "coordinates": [ 2.3224396, 48.8437645 ] } },
{ "type": "Feature", "properties": { "osmid": "1950376087", "amenity": "bicycle_rental", "capacity": "23", "name": "Place de la Fraternité", "network": "Vélib’" }, "geometry": { "type": "Point", "coordinates": [ 2.4228567, 48.8571845 ] } },
{ "type": "Feature", "properties": { "osmid": "2267747960", "amenity": "bicycle_rental", "capacity": "33", "name": "Henri Chevreau · Couronnes", "network": "Vélib’" }, "geometry": { "type": "Point", "coordinates": [ 2.3886487, 48.8704048 ] } },
{ "type": "Feature", "properties": { "osmid": "2279282604", "amenity": "bicycle_rental", "capacity": "27", "name": "Pont de Lodi - Dauphine", "network": "Vélib'" }, "geometry": { "type": "Point", "coordinates": [ 2.3399457, 48.8552856 ] } },
{ "type": "Feature", "properties": { "osmid": "2335457504", "amenity": "bicycle_rental", "capacity": "50", "name": "Grands Moulins de Pantin", "network": "Vélib'" }, "geometry": { "type": "Point", "coordinates": [ 2.3961163, 48.8971841 ] } },
{ "type": "Feature", "properties": { "osmid": "2350539184", "amenity": "bicycle_rental", "capacity": null, "name": null, "network": "Vélib'" }, "geometry": { "type": "Point", "coordinates": [ 2.3689061, 48.8862633 ] } },
{ "type": "Feature", "properties": { "osmid": "2358812897", "amenity": "bicycle_rental", "capacity": "19", "name": null, "network": "Vélib'" }, "geometry": { "type": "Point", "coordinates": [ 2.3654899, 48.8668046 ] } },
{ "type": "Feature", "properties": { "osmid": "2386245838", "amenity": "bicycle_rental", "capacity": null, "name": null, "network": "Vélib'" }, "geometry": { "type": "Point", "coordinates": [ 2.3685119, 48.8155924 ] } },
{ "type": "Feature", "properties": { "osmid": "2399755606", "amenity": "bicycle_rental", "capacity": "54", "name": null, "network": "Vélib'" }, "geometry": { "type": "Point", "coordinates": [ 2.3146952, 48.8941445 ] } },
{ "type": "Feature", "properties": { "osmid": "2481098013", "amenity": "bicycle_rental", "capacity": null, "name": "Paris Bike Tour", "network": null }, "geometry": { "type": "Point", "coordinates": [ 2.3527653, 48.8623327 ] } },
{ "type": "Feature", "properties": { "osmid": "2500448642", "amenity": "bicycle_rental", "capacity": null, "name": "Franquet - Labrouste", "network": "Vélib’" }, "geometry": { "type": "Point", "coordinates": [ 2.3068297, 48.8328697 ] } },
{ "type": "Feature", "properties": { "osmid": "2500448774", "amenity": "bicycle_rental", "capacity": null, "name": null, "network": "Vélib'" }, "geometry": { "type": "Point", "coordinates": [ 2.2953215, 48.8430898 ] } },
{ "type": "Feature", "properties": { "osmid": "2531866611", "amenity": "bicycle_rental", "capacity": "70", "name": null, "network": "Vélib'" }, "geometry": { "type": "Point", "coordinates": [ 2.2749183, 48.8708161 ] } },
{ "type": "Feature", "properties": { "osmid": "2540240922", "amenity": "bicycle_rental", "capacity": "23", "name": "Pierre Brossolette - Adolphe Pinard", "network": "Vélib’" }, "geometry": { "type": "Point", "coordinates": [ 2.3131477, 48.8217817 ] } },
{ "type": "Feature", "properties": { "osmid": "2907989650", "amenity": "bicycle_rental", "capacity": null, "name": null, "network": "Vélib'" }, "geometry": { "type": "Point", "coordinates": [ 2.3984066, 48.8571019 ] } },
{ "type": "Feature", "properties": { "osmid": "2914625160", "amenity": "bicycle_rental", "capacity": "23", "name": "Roquette · Thiéré", "network": "Vélib'" }, "geometry": { "type": "Point", "coordinates": [ 2.373443, 48.8550968 ] } },
{ "type": "Feature", "properties": { "osmid": "2926540776", "amenity": "bicycle_rental", "capacity": "33", "name": "Charles de Gaulle - Plateau de Vanves", "network": "Vélib’" }, "geometry": { "type": "Point", "coordinates": [ 2.2985749, 48.8223483 ] } },
{ "type": "Feature", "properties": { "osmid": "3087167033", "amenity": "bicycle_rental", "capacity": null, "name": null, "network": "Vélib Métropole" }, "geometry": { "type": "Point", "coordinates": [ 2.4061185, 48.8478853 ] } },
{ "type": "Feature", "properties": { "osmid": "3168952636", "amenity": "bicycle_rental", "capacity": "46", "name": "Philippe-Auguste", "network": "Vélib’" }, "geometry": { "type": "Point", "coordinates": [ 2.3931277, 48.8517825 ] } },
{ "type": "Feature", "properties": { "osmid": "3176711216", "amenity": "bicycle_rental", "capacity": "19", "name": "Colonel Monteil - Brune", "network": "Vélib’" }, "geometry": { "type": "Point", "coordinates": [ 2.3092414, 48.8264658 ] } },
{ "type": "Feature", "properties": { "osmid": "3431809379", "amenity": "bicycle_rental", "capacity": null, "name": null, "network": "Vélib’" }, "geometry": { "type": "Point", "coordinates": [ 2.2925522, 48.8249472 ] } },
{ "type": "Feature", "properties": { "osmid": "4805755124", "amenity": "bicycle_rental", "capacity": null, "name": "Pierre Grenier Pont de Billancourt", "network": "Vélib’" }, "geometry": { "type": "Point", "coordinates": [ 2.2486824, 48.8256935 ] } },
{ "type": "Feature", "properties": { "osmid": "4982336829", "amenity": "bicycle_rental", "capacity": null, "name": "Place de la Nation - Taillebourg", "network": "Vélib’" }, "geometry": { "type": "Point", "coordinates": [ 2.3973385, 48.84895 ] } },
{ "type": "Feature", "properties": { "osmid": "4982774223", "amenity": "bicycle_rental", "capacity": "42", "name": "Ménilmontant - Oberkampf", "network": "Vélib’" }, "geometry": { "type": "Point", "coordinates": [ 2.3823236, 48.8669059 ] } },
{ "type": "Feature", "properties": { "osmid": "5031885157", "amenity": "bicycle_rental", "capacity": null, "name": "Fontenay - Libération", "network": "Vélib'" }, "geometry": { "type": "Point", "coordinates": [ 2.445141, 48.8478154 ] } },
{ "type": "Feature", "properties": { "osmid": "5328053572", "amenity": "bicycle_rental", "capacity": "26", "name": "Pergolèse - Marbeau", "network": "Vélib'" }, "geometry": { "type": "Point", "coordinates": [ 2.2814911, 48.8735554 ] } },
{ "type": "Feature", "properties": { "osmid": "5328057456", "amenity": "bicycle_rental", "capacity": "42", "name": "Flandrin - Longchamp", "network": "Vélib'" }, "geometry": { "type": "Point", "coordinates": [ 2.274287, 48.8687039 ] } },
{ "type": "Feature", "properties": { "osmid": "5363801429", "amenity": "bicycle_rental", "capacity": "20", "name": "Athènes - Clichy", "network": "Vélib Métropole" }, "geometry": { "type": "Point", "coordinates": [ 2.3294724, 48.8781041 ] } },
{ "type": "Feature", "properties": { "osmid": "5422046619", "amenity": "bicycle_rental", "capacity": null, "name": null, "network": "Vélib'" }, "geometry": { "type": "Point", "coordinates": [ 2.361445, 48.8866841 ] } },
{ "type": "Feature", "properties": { "osmid": "5422420400", "amenity": "bicycle_rental", "capacity": null, "name": null, "network": null }, "geometry": { "type": "Point", "coordinates": [ 2.3603326, 48.890199 ] } },
{ "type": "Feature", "properties": { "osmid": "5470835633", "amenity": "bicycle_rental", "capacity": "20", "name": null, "network": "Vélib’" }, "geometry": { "type": "Point", "coordinates": [ 2.3787145, 48.8211361 ] } },
{ "type": "Feature", "properties": { "osmid": "5470979535", "amenity": "bicycle_rental", "capacity": "42", "name": "Pajol - Riquet", "network": "Vélib'" }, "geometry": { "type": "Point", "coordinates": [ 2.3627914, 48.889479 ] } },
{ "type": "Feature", "properties": { "osmid": "5477477345", "amenity": "bicycle_rental", "capacity": null, "name": "Fernand Braudel - Vincent Auriol", "network": "Vélib’" }, "geometry": { "type": "Point", "coordinates": [ 2.3725158, 48.8361541 ] } },
{ "type": "Feature", "properties": { "osmid": "5486021931", "amenity": "bicycle_rental", "capacity": "58", "name": "Dutot - Place Alleray", "network": "Vélib’" }, "geometry": { "type": "Point", "coordinates": [ 2.3069213, 48.8366401 ] } },
{ "type": "Feature", "properties": { "osmid": "5516872699", "amenity": "bicycle_rental", "capacity": "34", "name": "Keller · La Roquette", "network": "Vélib'" }, "geometry": { "type": "Point", "coordinates": [ 2.3752267, 48.855531 ] } },
{ "type": "Feature", "properties": { "osmid": "5518213309", "amenity": "bicycle_rental", "capacity": "29", "name": "Pré Saint-Gervais · Lilas", "network": "Vélib'" }, "geometry": { "type": "Point", "coordinates": [ 2.3960334, 48.8779451 ] } },
{ "type": "Feature", "properties": { "osmid": "5519959213", "amenity": "bicycle_rental", "capacity": "12", "name": null, "network": "Vélib Métropole" }, "geometry": { "type": "Point", "coordinates": [ 2.4062909, 48.8503463 ] } },
{ "type": "Feature", "properties": { "osmid": "5528878600", "amenity": "bicycle_rental", "capacity": "15", "name": "Porte de Ménilmontant", "network": "Vélib’" }, "geometry": { "type": "Point", "coordinates": [ 2.4093063, 48.8691394 ] } },
{ "type": "Feature", "properties": { "osmid": "5534759509", "amenity": "bicycle_rental", "capacity": "42", "name": "Belleville · Télégraphe", "network": "Velib'" }, "geometry": { "type": "Point", "coordinates": [ 2.3994821, 48.8756193 ] } },
{ "type": "Feature", "properties": { "osmid": "5538107485", "amenity": "bicycle_rental", "capacity": "34", "name": "Ferrus - Saint-Jacques", "network": "Vélib’" }, "geometry": { "type": "Point", "coordinates": [ 2.3408313, 48.8314299 ] } },
{ "type": "Feature", "properties": { "osmid": "5551438312", "amenity": "bicycle_rental", "capacity": "23", "name": "Ouest - Château", "network": "Vélib’" }, "geometry": { "type": "Point", "coordinates": [ 2.319394, 48.8361775 ] } },
{ "type": "Feature", "properties": { "osmid": "5551438317", "amenity": "bicycle_rental", "capacity": "50", "name": "Maine · Jean Zay", "network": "Vélib'" }, "geometry": { "type": "Point", "coordinates": [ 2.3224383, 48.8379888 ] } },
{ "type": "Feature", "properties": { "osmid": "5553227121", "amenity": "bicycle_rental", "capacity": "19", "name": "Ménilmontant - Pelleport", "network": "Vélib’" }, "geometry": { "type": "Point", "coordinates": [ 2.3989604, 48.8706853 ] } },
{ "type": "Feature", "properties": { "osmid": "5556165359", "amenity": "bicycle_rental", "capacity": "23", "name": "Place Falguière", "network": "Vélib’" }, "geometry": { "type": "Point", "coordinates": [ 2.310461, 48.8363313 ] } },
{ "type": "Feature", "properties": { "osmid": "5556165360", "amenity": "bicycle_rental", "capacity": "22", "name": "Duhamel - André Gide", "network": "Vélib’" }, "geometry": { "type": "Point", "coordinates": [ 2.3127044, 48.8366599 ] } },
{ "type": "Feature", "properties": { "osmid": "5569041166", "amenity": "bicycle_rental", "capacity": null, "name": null, "network": "Vélib'" }, "geometry": { "type": "Point", "coordinates": [ 2.323359, 48.8920988 ] } },
{ "type": "Feature", "properties": { "osmid": "5569041170", "amenity": "bicycle_rental", "capacity": null, "name": null, "network": "Vélib'" }, "geometry": { "type": "Point", "coordinates": [ 2.3366674, 48.8935069 ] } },
{ "type": "Feature", "properties": { "osmid": "5569041179", "amenity": "bicycle_rental", "capacity": null, "name": "Ordener-Poissonniers", "network": "Vélib'" }, "geometry": { "type": "Point", "coordinates": [ 2.3512276, 48.8912611 ] } },
{ "type": "Feature", "properties": { "osmid": "5596102053", "amenity": "bicycle_rental", "capacity": "22", "name": "Danton · Serpente", "network": "Velib'" }, "geometry": { "type": "Point", "coordinates": [ 2.3414387, 48.8523926 ] } },
{ "type": "Feature", "properties": { "osmid": "5596256890", "amenity": "bicycle_rental", "capacity": "21", "name": "Gérando - Rochechouart", "network": "Vélib’" }, "geometry": { "type": "Point", "coordinates": [ 2.3463669, 48.8829038 ] } },
{ "type": "Feature", "properties": { "osmid": "5596257214", "amenity": "bicycle_rental", "capacity": "33", "name": "Square d'Anvers", "network": "Vélib'" }, "geometry": { "type": "Point", "coordinates": [ 2.3449016, 48.8826283 ] } },
{ "type": "Feature", "properties": { "osmid": "5627118343", "amenity": "bicycle_rental", "capacity": "24", "name": "Etienne Marcel - Montorgueil", "network": "Vélib'" }, "geometry": { "type": "Point", "coordinates": [ 2.3463019, 48.8645723 ] } },
{ "type": "Feature", "properties": { "osmid": "5646306477", "amenity": "bicycle_rental", "capacity": "40", "name": null, "network": null }, "geometry": { "type": "Point", "coordinates": [ 2.3225523, 48.8889641 ] } },
{ "type": "Feature", "properties": { "osmid": "5655597962", "amenity": "bicycle_rental", "capacity": "20", "name": "Hôtel de Ville · Pont d'Arcole", "network": "Vélib'" }, "geometry": { "type": "Point", "coordinates": [ 2.3508449, 48.8558581 ] } },
{ "type": "Feature", "properties": { "osmid": "5655931519", "amenity": "bicycle_rental", "capacity": null, "name": null, "network": "Velib'" }, "geometry": { "type": "Point", "coordinates": [ 2.3375564, 48.8552486 ] } },
{ "type": "Feature", "properties": { "osmid": "5659056369", "amenity": "bicycle_rental", "capacity": null, "name": null, "network": null }, "geometry": { "type": "Point", "coordinates": [ 2.3454362, 48.8661047 ] } },
{ "type": "Feature", "properties": { "osmid": "5679195372", "amenity": "bicycle_rental", "capacity": "36", "name": "Place de la Nation - Charonne", "network": "Vélib’" }, "geometry": { "type": "Point", "coordinates": [ 2.3997585, 48.8483689 ] } },
{ "type": "Feature", "properties": { "osmid": "5700513522", "amenity": "bicycle_rental", "capacity": "38", "name": "Saint-Amand - Labrouste", "network": "Vélib’" }, "geometry": { "type": "Point", "coordinates": [ 2.3088285, 48.8341364 ] } },
{ "type": "Feature", "properties": { "osmid": "5708095754", "amenity": "bicycle_rental", "capacity": "37", "name": "Cloître Saint-Merri · Renard", "network": "Vélib' Métropole" }, "geometry": { "type": "Point", "coordinates": [ 2.3518235, 48.858858 ] } },
{ "type": "Feature", "properties": { "osmid": "5730943762", "amenity": "bicycle_rental", "capacity": "35", "name": "Porte Dorée", "network": "Vélib’" }, "geometry": { "type": "Point", "coordinates": [ 2.4077144, 48.8354364 ] } },
{ "type": "Feature", "properties": { "osmid": "5737051757", "amenity": "bicycle_rental", "capacity": "31", "name": "Volontaires - Vaugirard", "network": "Vélib'" }, "geometry": { "type": "Point", "coordinates": [ 2.3080911, 48.8413191 ] } },
{ "type": "Feature", "properties": { "osmid": "5737051758", "amenity": "bicycle_rental", "capacity": "16", "name": "Thouin · Cardinal Lemoine", "network": "Vélib'" }, "geometry": { "type": "Point", "coordinates": [ 2.349494, 48.8450614 ] } },
{ "type": "Feature", "properties": { "osmid": "5757155923", "amenity": "bicycle_rental", "capacity": "58", "name": "M.- A. Lagroua Weill-Hallé - F. Dolto", "network": "Vélib’" }, "geometry": { "type": "Point", "coordinates": [ 2.380309, 48.8285761 ] } },
{ "type": "Feature", "properties": { "osmid": "5838535122", "amenity": "bicycle_rental", "capacity": "31", "name": "Turbigo · Réaumur Paris", "network": "Vélib'" }, "geometry": { "type": "Point", "coordinates": [ 2.3562988, 48.8655822 ] } },
{ "type": "Feature", "properties": { "osmid": "5841908080", "amenity": "bicycle_rental", "capacity": "12", "name": "Félix Faure - Lourmel", "network": "Vélib'" }, "geometry": { "type": "Point", "coordinates": [ 2.2815835, 48.8385888 ] } },
{ "type": "Feature", "properties": { "osmid": "5879359748", "amenity": "bicycle_rental", "capacity": "51", "name": "Mairie du 11e", "network": "Vélib" }, "geometry": { "type": "Point", "coordinates": [ 2.3789873, 48.8588888 ] } },
{ "type": "Feature", "properties": { "osmid": "5882629462", "amenity": "bicycle_rental", "capacity": "32", "name": "Mairie du 3e", "network": "Vélib'" }, "geometry": { "type": "Point", "coordinates": [ 2.3616458, 48.8645182 ] } },
{ "type": "Feature", "properties": { "osmid": "5899747679", "amenity": "bicycle_rental", "capacity": "23", "name": "Pierre Brossolette - 12 Février 1934", "network": "Vélib’" }, "geometry": { "type": "Point", "coordinates": [ 2.3076307, 48.8177476 ] } },
{ "type": "Feature", "properties": { "osmid": "5909410894", "amenity": "bicycle_rental", "capacity": null, "name": "Porte d'Ivry", "network": "Vélib’" }, "geometry": { "type": "Point", "coordinates": [ 2.3686227, 48.8219047 ] } },
{ "type": "Feature", "properties": { "osmid": "5909496692", "amenity": "bicycle_rental", "capacity": "18", "name": "Ivry - Simone Weil", "network": "Vélib’" }, "geometry": { "type": "Point", "coordinates": [ 2.3660212, 48.8232281 ] } },
{ "type": "Feature", "properties": { "osmid": "5910174826", "amenity": "bicycle_rental", "capacity": "20", "name": "Place Denfert-Rochereau", "network": "Vélib’" }, "geometry": { "type": "Point", "coordinates": [ 2.2459709, 48.8432636 ] } },
{ "type": "Feature", "properties": { "osmid": "5911292061", "amenity": "bicycle_rental", "capacity": "62", "name": "Place Lafayette", "network": "Vélib’" }, "geometry": { "type": "Point", "coordinates": [ 2.2636986, 48.8294219 ] } },
{ "type": "Feature", "properties": { "osmid": "5913701729", "amenity": "bicycle_rental", "capacity": "17", "name": "Maine · Antoine Bourdelle", "network": "Velib'" }, "geometry": { "type": "Point", "coordinates": [ 2.3202945, 48.8430628 ] } },
{ "type": "Feature", "properties": { "osmid": "5914756484", "amenity": "bicycle_rental", "capacity": null, "name": "Olympiades", "network": "Vélib’" }, "geometry": { "type": "Point", "coordinates": [ 2.3652354, 48.826922 ] } },
{ "type": "Feature", "properties": { "osmid": "5914762346", "amenity": "bicycle_rental", "capacity": "33", "name": "Vistule - Choisy", "network": "Vélib’" }, "geometry": { "type": "Point", "coordinates": [ 2.3615758, 48.8236351 ] } },
{ "type": "Feature", "properties": { "osmid": "5924215781", "amenity": "bicycle_rental", "capacity": "34", "name": "Didot - Mariniers", "network": "Vélib’" }, "geometry": { "type": "Point", "coordinates": [ 2.3132188, 48.8265022 ] } },
{ "type": "Feature", "properties": { "osmid": "5925974721", "amenity": "bicycle_rental", "capacity": null, "name": "Sébastopol Greneta", "network": "Vélib'" }, "geometry": { "type": "Point", "coordinates": [ 2.3516713, 48.8652434 ] } },
{ "type": "Feature", "properties": { "osmid": "5925974722", "amenity": "bicycle_rental", "capacity": null, "name": "Rue Saint-Denis", "network": "Vélib'" }, "geometry": { "type": "Point", "coordinates": [ 2.3508795, 48.8661916 ] } },
{ "type": "Feature", "properties": { "osmid": "5932559744", "amenity": "bicycle_rental", "capacity": "17", "name": "Rampal - Belleville Paris", "network": "Velib'" }, "geometry": { "type": "Point", "coordinates": [ 2.379849, 48.8731596 ] } },
{ "type": "Feature", "properties": { "osmid": "5941051611", "amenity": "bicycle_rental", "capacity": "46", "name": "Centenaire - Sorins", "network": "Vélib’" }, "geometry": { "type": "Point", "coordinates": [ 2.427316, 48.8584744 ] } },
{ "type": "Feature", "properties": { "osmid": "5949554145", "amenity": "bicycle_rental", "capacity": "48", "name": "Porte d'Orléans", "network": "Vélib’" }, "geometry": { "type": "Point", "coordinates": [ 2.3250001, 48.822748 ] } },
{ "type": "Feature", "properties": { "osmid": "5952258883", "amenity": "bicycle_rental", "capacity": "25", "name": "Choisy - Malmaisons", "network": "Vélib’" }, "geometry": { "type": "Point", "coordinates": [ 2.363348, 48.8219109 ] } },
{ "type": "Feature", "properties": { "osmid": "5957319703", "amenity": "bicycle_rental", "capacity": null, "name": null, "network": null }, "geometry": { "type": "Point", "coordinates": [ 2.3428586, 48.862154 ] } },
{ "type": "Feature", "properties": { "osmid": "5959879034", "amenity": "bicycle_rental", "capacity": "68", "name": "Gare de Lyon - Roland Barthes Paris", "network": "Vélib'" }, "geometry": { "type": "Point", "coordinates": [ 2.379015, 48.8439515 ] } },
{ "type": "Feature", "properties": { "osmid": "5964620983", "amenity": "bicycle_rental", "capacity": "17", "name": "Quai de l'Horloge · Pont Neuf", "network": "Vélib'" }, "geometry": { "type": "Point", "coordinates": [ 2.3417635, 48.8570865 ] } },
{ "type": "Feature", "properties": { "osmid": "5998636863", "amenity": "bicycle_rental", "capacity": "32", "name": "Blaise-Desgoffe · Vaugirard", "network": "Vélib'" }, "geometry": { "type": "Point", "coordinates": [ 2.32423, 48.8461417 ] } },
{ "type": "Feature", "properties": { "osmid": "6002443804", "amenity": "bicycle_rental", "capacity": null, "name": "Vaneau - Sevres", "network": "Vélib'" }, "geometry": { "type": "Point", "coordinates": [ 2.3203522, 48.8487491 ] } },
{ "type": "Feature", "properties": { "osmid": "6002443805", "amenity": "bicycle_rental", "capacity": "66", "name": "Saint-Placide - Cherche Midi", "network": "Vélib'" }, "geometry": { "type": "Point", "coordinates": [ 2.3250005, 48.8493351 ] } },
{ "type": "Feature", "properties": { "osmid": "6002443806", "amenity": "bicycle_rental", "capacity": "24", "name": "Dareau - Broussais", "network": "Vélib’" }, "geometry": { "type": "Point", "coordinates": [ 2.3361149, 48.8307082 ] } },
{ "type": "Feature", "properties": { "osmid": "6002443807", "amenity": "bicycle_rental", "capacity": "36", "name": "Tombe Issoire - René Coty", "network": "Vélib’" }, "geometry": { "type": "Point", "coordinates": [ 2.3343949, 48.8305304 ] } },
{ "type": "Feature", "properties": { "osmid": "6002443827", "amenity": "bicycle_rental", "capacity": "36", "name": "René Coty - Place Denfert-Rochereau", "network": "Vélib’" }, "geometry": { "type": "Point", "coordinates": [ 2.332687, 48.8331037 ] } },
{ "type": "Feature", "properties": { "osmid": "6003453210", "amenity": "bicycle_rental", "capacity": "26", "name": "Parc de Belleville · Julien Lacroix Paris", "network": "Vélib" }, "geometry": { "type": "Point", "coordinates": [ 2.3842505, 48.8703409 ] } },
{ "type": "Feature", "properties": { "osmid": "6015194639", "amenity": "bicycle_rental", "capacity": "14", "name": "Gare d'Austerlitz", "network": "Vélib'" }, "geometry": { "type": "Point", "coordinates": [ 2.3639006, 48.8424038 ] } },
{ "type": "Feature", "properties": { "osmid": "6015216957", "amenity": "bicycle_rental", "capacity": "19", "name": "Gare d'Austerlitz - Hôpital", "network": "Vélib’" }, "geometry": { "type": "Point", "coordinates": [ 2.3634917, 48.8418549 ] } },
{ "type": "Feature", "properties": { "osmid": "6016301689", "amenity": "bicycle_rental", "capacity": null, "name": "Constantine-Université", "network": "Vélib’" }, "geometry": { "type": "Point", "coordinates": [ 2.3148342, 48.8606515 ] } },
{ "type": "Feature", "properties": { "osmid": "6016301692", "amenity": "bicycle_rental", "capacity": "32", "name": "Las Cases-Bourgogne", "network": "Vélib’" }, "geometry": { "type": "Point", "coordinates": [ 2.3186208, 48.8590743 ] } },
{ "type": "Feature", "properties": { "osmid": "6016301694", "amenity": "bicycle_rental", "capacity": null, "name": "Varenne", "network": "Vélib’" }, "geometry": { "type": "Point", "coordinates": [ 2.3149556, 48.8576838 ] } },
{ "type": "Feature", "properties": { "osmid": "6016301701", "amenity": "bicycle_rental", "capacity": "42", "name": "Duroc - Place de Breteuil", "network": "Vélib’" }, "geometry": { "type": "Point", "coordinates": [ 2.3128179, 48.8475312 ] } },
{ "type": "Feature", "properties": { "osmid": "6031787138", "amenity": "bicycle_rental", "capacity": "30", "name": null, "network": null }, "geometry": { "type": "Point", "coordinates": [ 2.3203072, 48.8877521 ] } },
{ "type": "Feature", "properties": { "osmid": "6043493986", "amenity": "bicycle_rental", "capacity": null, "name": "Blaise-Desgoffe Vaugirard", "network": "Vélib'" }, "geometry": { "type": "Point", "coordinates": [ 2.3245175, 48.8458924 ] } },
{ "type": "Feature", "properties": { "osmid": "6043505885", "amenity": "bicycle_rental", "capacity": "62", "name": "Sèvre - Lecourbe", "network": null }, "geometry": { "type": "Point", "coordinates": [ 2.3111022, 48.8448054 ] } },
{ "type": "Feature", "properties": { "osmid": "6045599685", "amenity": "bicycle_rental", "capacity": "28", "name": "Bobillot - Moulin des Prés", "network": "Vélib’" }, "geometry": { "type": "Point", "coordinates": [ 2.3531199, 48.8286481 ] } },
{ "type": "Feature", "properties": { "osmid": "6050689894", "amenity": "bicycle_rental", "capacity": "27", "name": "Hôtel de Ville de Vincennes", "network": "Vélib'" }, "geometry": { "type": "Point", "coordinates": [ 2.4399019, 48.8482896 ] } },
{ "type": "Feature", "properties": { "osmid": "6059934985", "amenity": "bicycle_rental", "capacity": "39", "name": "Mouton Duvernet - Général Leclerc", "network": "Vélib’" }, "geometry": { "type": "Point", "coordinates": [ 2.3293192, 48.8315023 ] } },
{ "type": "Feature", "properties": { "osmid": "6059934986", "amenity": "bicycle_rental", "capacity": "22", "name": "Didot · Place de Moro-Giafferi", "network": "Vélib’" }, "geometry": { "type": "Point", "coordinates": [ 2.3215052, 48.833685 ] } },
{ "type": "Feature", "properties": { "osmid": "6059934987", "amenity": "bicycle_rental", "capacity": "32", "name": "Mairie du 14ème", "network": "Vélib’" }, "geometry": { "type": "Point", "coordinates": [ 2.3254135, 48.832518 ] } },
{ "type": "Feature", "properties": { "osmid": "6071611326", "amenity": "bicycle_rental", "capacity": "17", "name": "Mairie de Romainville", "network": "Vélib’" }, "geometry": { "type": "Point", "coordinates": [ 2.4357422, 48.8851378 ] } },
{ "type": "Feature", "properties": { "osmid": "6082724645", "amenity": "bicycle_rental", "capacity": "21", "name": null, "network": "Vélib'" }, "geometry": { "type": "Point", "coordinates": [ 2.2756619, 48.8559786 ] } },
{ "type": "Feature", "properties": { "osmid": "6083591401", "amenity": "bicycle_rental", "capacity": "59", "name": "Quai Panhard et Levassor", "network": "Vélib’" }, "geometry": { "type": "Point", "coordinates": [ 2.3844637, 48.8282265 ] } },
{ "type": "Feature", "properties": { "osmid": "6085616363", "amenity": "bicycle_rental", "capacity": "25", "name": "Candale - Mehul", "network": "Vélib’" }, "geometry": { "type": "Point", "coordinates": [ 2.4142619, 48.8893467 ] } },
{ "type": "Feature", "properties": { "osmid": "6100300958", "amenity": "bicycle_rental", "capacity": "18", "name": null, "network": null }, "geometry": { "type": "Point", "coordinates": [ 2.2845179, 48.8778012 ] } },
{ "type": "Feature", "properties": { "osmid": "6100300959", "amenity": "bicycle_rental", "capacity": "34", "name": null, "network": null }, "geometry": { "type": "Point", "coordinates": [ 2.2843556, 48.8777121 ] } },
{ "type": "Feature", "properties": { "osmid": "6114006934", "amenity": "bicycle_rental", "capacity": "21", "name": "Marc Sangnier - Porte de Vanves", "network": "Vélib’" }, "geometry": { "type": "Point", "coordinates": [ 2.3106734, 48.8253204 ] } },
{ "type": "Feature", "properties": { "osmid": "6126588905", "amenity": "bicycle_rental", "capacity": "37", "name": "Gaston Tessier - Rosa Parks RER", "network": "Vélib’" }, "geometry": { "type": "Point", "coordinates": [ 2.3744823, 48.8961258 ] } },
{ "type": "Feature", "properties": { "osmid": "6134818406", "amenity": "bicycle_rental", "capacity": "39", "name": "Saint-Lazare Place d'Estienne d'Orves", "network": "Vélib'" }, "geometry": { "type": "Point", "coordinates": [ 2.3327976, 48.8768665 ] } },
{ "type": "Feature", "properties": { "osmid": "6150099339", "amenity": "bicycle_rental", "capacity": null, "name": "Le réal de Vélib'", "network": null }, "geometry": { "type": "Point", "coordinates": [ 2.3470308, 48.858443 ] } },
{ "type": "Feature", "properties": { "osmid": "6150502839", "amenity": "bicycle_rental", "capacity": null, "name": null, "network": "Vélib'" }, "geometry": { "type": "Point", "coordinates": [ 2.3487158, 48.8415814 ] } },
{ "type": "Feature", "properties": { "osmid": "6161628602", "amenity": "bicycle_rental", "capacity": "40", "name": "Auguste Cain - Jean Moulin", "network": "Vélib’" }, "geometry": { "type": "Point", "coordinates": [ 2.3212688, 48.8257063 ] } },
{ "type": "Feature", "properties": { "osmid": "6178003146", "amenity": "bicycle_rental", "capacity": "48", "name": "Villette · Belleville Paris", "network": "Velib'" }, "geometry": { "type": "Point", "coordinates": [ 2.3762286, 48.87288 ] } },
{ "type": "Feature", "properties": { "osmid": "6187711817", "amenity": "bicycle_rental", "capacity": "26", "name": "Louis Rolland - République", "network": "Vélib’" }, "geometry": { "type": "Point", "coordinates": [ 2.3193792, 48.8171177 ] } },
{ "type": "Feature", "properties": { "osmid": "6193061718", "amenity": "bicycle_rental", "capacity": "39", "name": "Jussieu · Fossés Saint-Bernard Paris", "network": "Vélib'" }, "geometry": { "type": "Point", "coordinates": [ 2.3534748, 48.8471553 ] } },
{ "type": "Feature", "properties": { "osmid": "6200272270", "amenity": "bicycle_rental", "capacity": "31", "name": "François 1er - Montaigne", "network": "Vélib’" }, "geometry": { "type": "Point", "coordinates": [ 2.306685, 48.8668746 ] } },
{ "type": "Feature", "properties": { "osmid": "6200279782", "amenity": "bicycle_rental", "capacity": "40", "name": "Place du Canada", "network": "Vélib’" }, "geometry": { "type": "Point", "coordinates": [ 2.3101062, 48.8652463 ] } },
{ "type": "Feature", "properties": { "osmid": "6203928293", "amenity": "bicycle_rental", "capacity": "44", "name": "Gare de l'Est - Faubourg Saint-Denis Paris", "network": "Vélib'" }, "geometry": { "type": "Point", "coordinates": [ 2.3559806, 48.8765329 ] } },
{ "type": "Feature", "properties": { "osmid": "6265006490", "amenity": "bicycle_rental", "capacity": "42", "name": "Porte de Saint-Ouen - Bessières", "network": "Velib'" }, "geometry": { "type": "Point", "coordinates": [ 2.3284688, 48.897937 ] } },
{ "type": "Feature", "properties": { "osmid": "6265813667", "amenity": "bicycle_rental", "capacity": "19", "name": "Station Vélib’ Ségur – d’Estrées", "network": "Vélib’" }, "geometry": { "type": "Point", "coordinates": [ 2.3098258, 48.8513585 ] } },
{ "type": "Feature", "properties": { "osmid": "6268237385", "amenity": "bicycle_rental", "capacity": "25", "name": "Sambre et Meuse · Villette", "network": "Velib'" }, "geometry": { "type": "Point", "coordinates": [ 2.3737971, 48.874409 ] } },
{ "type": "Feature", "properties": { "osmid": "6272762982", "amenity": "bicycle_rental", "capacity": "30", "name": "Choisy - Tolbiac", "network": "Vélib’" }, "geometry": { "type": "Point", "coordinates": [ 2.3602008, 48.8259105 ] } },
{ "type": "Feature", "properties": { "osmid": "6293406879", "amenity": "bicycle_rental", "capacity": "21", "name": "Chevaleret - Tolbiac", "network": "Vélib’" }, "geometry": { "type": "Point", "coordinates": [ 2.3760818, 48.8292524 ] } },
{ "type": "Feature", "properties": { "osmid": "6297078185", "amenity": "bicycle_rental", "capacity": null, "name": null, "network": "Vélib’" }, "geometry": { "type": "Point", "coordinates": [ 2.3233239, 48.8703795 ] } },
{ "type": "Feature", "properties": { "osmid": "6297871635", "amenity": "bicycle_rental", "capacity": "23", "name": "Nationale - Marcel Duchamp", "network": "Vélib’" }, "geometry": { "type": "Point", "coordinates": [ 2.3677301, 48.824837 ] } },
{ "type": "Feature", "properties": { "osmid": "6297871636", "amenity": "bicycle_rental", "capacity": "35", "name": "Place Jean Delay", "network": "Vélib’" }, "geometry": { "type": "Point", "coordinates": [ 2.3543321, 48.8233117 ] } },
{ "type": "Feature", "properties": { "osmid": "6308563465", "amenity": "bicycle_rental", "capacity": "35", "name": "Vélib' (Paix-Verdun)", "network": "Vélib' Métropole" }, "geometry": { "type": "Point", "coordinates": [ 2.2611748, 48.9004959 ] } },
{ "type": "Feature", "properties": { "osmid": "6308563466", "amenity": "bicycle_rental", "capacity": "28", "name": "Vélib' (Place Charles de Gaulle)", "network": "Vélib' Métropole" }, "geometry": { "type": "Point", "coordinates": [ 2.2524305, 48.8966105 ] } },
{ "type": "Feature", "properties": { "osmid": "6308563467", "amenity": "bicycle_rental", "capacity": "36", "name": "Vélib' (Gare de Courbevoie)", "network": "Vélib' Métropole" }, "geometry": { "type": "Point", "coordinates": [ 2.2505717, 48.8993646 ] } },
{ "type": "Feature", "properties": { "osmid": "6311668034", "amenity": "bicycle_rental", "capacity": null, "name": null, "network": "Vélib'" }, "geometry": { "type": "Point", "coordinates": [ 2.2267364, 48.8677923 ] } },
{ "type": "Feature", "properties": { "osmid": "6320368373", "amenity": "bicycle_rental", "capacity": "44", "name": "Mairie du 4ème", "network": "Vélib’" }, "geometry": { "type": "Point", "coordinates": [ 2.3563873, 48.8559636 ] } },
{ "type": "Feature", "properties": { "osmid": "6320373040", "amenity": "bicycle_rental", "capacity": "35", "name": "Station Vélib’ Paul Bodin – Clichy", "network": "Vélib’" }, "geometry": { "type": "Point", "coordinates": [ 2.3173091, 48.8926329 ] } },
{ "type": "Feature", "properties": { "osmid": "6338334564", "amenity": "bicycle_rental", "capacity": "44", "name": "Ramponeau · Belleville Paris", "network": "Velib'" }, "geometry": { "type": "Point", "coordinates": [ 2.3792237, 48.8710547 ] } },
{ "type": "Feature", "properties": { "osmid": "6341438348", "amenity": "bicycle_rental", "capacity": null, "name": null, "network": "Vélib'" }, "geometry": { "type": "Point", "coordinates": [ 2.3045098, 48.8400336 ] } },
{ "type": "Feature", "properties": { "osmid": "6350981829", "amenity": "bicycle_rental", "capacity": "23", "name": "Vélib' (Île de la Jatte)", "network": "Vélib' Métropole" }, "geometry": { "type": "Point", "coordinates": [ 2.2666882, 48.8940396 ] } },
{ "type": "Feature", "properties": { "osmid": "6352992495", "amenity": "bicycle_rental", "capacity": "0", "name": "Le Corbusier - Jean Jaurès", "network": "Vélib’" }, "geometry": { "type": "Point", "coordinates": [ 2.2408327, 48.8378564 ] } },
{ "type": "Feature", "properties": { "osmid": "6352992496", "amenity": "bicycle_rental", "capacity": "", "name": "Fessart - Château", "network": "Vélib’" }, "geometry": { "type": "Point", "coordinates": [ 2.2398839, 48.8423946 ] } },
{ "type": "Feature", "properties": { "osmid": "6352992497", "amenity": "bicycle_rental", "capacity": "31", "name": "Jean Jaurès - Reine", "network": "Vélib’" }, "geometry": { "type": "Point", "coordinates": [ 2.2398537, 48.8401779 ] } },
{ "type": "Feature", "properties": { "osmid": "6352992498", "amenity": "bicycle_rental", "capacity": "27", "name": "Transvaal - Charles de Gaulle", "network": "Vélib’" }, "geometry": { "type": "Point", "coordinates": [ 2.2375383, 48.8483065 ] } },
{ "type": "Feature", "properties": { "osmid": "6352992499", "amenity": "bicycle_rental", "capacity": "24", "name": "Jean Jaurès - Jean Baptiste Clément", "network": "Vélib’" }, "geometry": { "type": "Point", "coordinates": [ 2.2370555, 48.8454537 ] } },
{ "type": "Feature", "properties": { "osmid": "6356590085", "amenity": "bicycle_rental", "capacity": "38", "name": "Faubourg du Temple · République", "network": "Vélib'" }, "geometry": { "type": "Point", "coordinates": [ 2.3649665, 48.8679361 ] } },
{ "type": "Feature", "properties": { "osmid": "6357866165", "amenity": "bicycle_rental", "capacity": null, "name": "Silly - Louis Blériot", "network": "Vélib’" }, "geometry": { "type": "Point", "coordinates": [ 2.2340433, 48.8322633 ] } },
{ "type": "Feature", "properties": { "osmid": "6357866166", "amenity": "bicycle_rental", "capacity": null, "name": "Danton - André Laurent", "network": "Vélib' Métropole" }, "geometry": { "type": "Point", "coordinates": [ 2.4619827, 48.8524489 ] } },
{ "type": "Feature", "properties": { "osmid": "6360315837", "amenity": "bicycle_rental", "capacity": "56", "name": "Marseille - Beaurepaire", "network": "Vélib'" }, "geometry": { "type": "Point", "coordinates": [ 2.3639089, 48.8716565 ] } },
{ "type": "Feature", "properties": { "osmid": "6362513632", "amenity": "bicycle_rental", "capacity": null, "name": null, "network": "Vélib’" }, "geometry": { "type": "Point", "coordinates": [ 2.3178078, 48.8446188 ] } },
{ "type": "Feature", "properties": { "osmid": "6373614104", "amenity": "bicycle_rental", "capacity": "33", "name": "Vélib' (Edith Cavell - Volta)", "network": "Vélib' Métropole" }, "geometry": { "type": "Point", "coordinates": [ 2.2692648, 48.9017613 ] } },
{ "type": "Feature", "properties": { "osmid": "6374141138", "amenity": "bicycle_rental", "capacity": null, "name": "Épee de Bois - Mouffetard", "network": "Velib'" }, "geometry": { "type": "Point", "coordinates": [ 2.3498897, 48.8415039 ] } },
{ "type": "Feature", "properties": { "osmid": "6378406945", "amenity": "bicycle_rental", "capacity": "0", "name": "Mornay - Sully", "network": "Velib'" }, "geometry": { "type": "Point", "coordinates": [ 2.3647749, 48.8497384 ] } },
{ "type": "Feature", "properties": { "osmid": "6378406946", "amenity": "bicycle_rental", "capacity": "14", "name": "Quai des Célestins - Henri IV", "network": "Velib'" }, "geometry": { "type": "Point", "coordinates": [ 2.3624287, 48.8512799 ] } },
{ "type": "Feature", "properties": { "osmid": "6378932196", "amenity": "bicycle_rental", "capacity": "58", "name": "Cimetière de Montrouge", "network": "Vélib’" }, "geometry": { "type": "Point", "coordinates": [ 2.3215397, 48.8213723 ] } },
{ "type": "Feature", "properties": { "osmid": "6379760208", "amenity": "bicycle_rental", "capacity": "48", "name": "Parmentier · Fontaine au Roi", "network": "Velib'" }, "geometry": { "type": "Point", "coordinates": [ 2.372704, 48.8678728 ] } },
{ "type": "Feature", "properties": { "osmid": "6380249071", "amenity": "bicycle_rental", "capacity": "53", "name": "Parmentier · Abel Rabaud", "network": "Velib'" }, "geometry": { "type": "Point", "coordinates": [ 2.3717096, 48.8692157 ] } },
{ "type": "Feature", "properties": { "osmid": "6380255681", "amenity": "bicycle_rental", "capacity": "16", "name": "Hôpital - Campo-Formio", "network": "Vélib’" }, "geometry": { "type": "Point", "coordinates": [ 2.3581832, 48.835395 ] } },
{ "type": "Feature", "properties": { "osmid": "6380255682", "amenity": "bicycle_rental", "capacity": "50", "name": "Hôpital Pitié Salpêtrière", "network": "Vélib’" }, "geometry": { "type": "Point", "coordinates": [ 2.3604526, 48.8377177 ] } },
{ "type": "Feature", "properties": { "osmid": "6380255683", "amenity": "bicycle_rental", "capacity": "21", "name": "Saint-Marcel - Hôpital", "network": "Vélib’" }, "geometry": { "type": "Point", "coordinates": [ 2.3608592, 48.8395379 ] } },
{ "type": "Feature", "properties": { "osmid": "6380617544", "amenity": "bicycle_rental", "capacity": "40", "name": "Jacquard - Ternaux", "network": "Velib’" }, "geometry": { "type": "Point", "coordinates": [ 2.3730717, 48.864548 ] } },
{ "type": "Feature", "properties": { "osmid": "6383961820", "amenity": "bicycle_rental", "capacity": "34", "name": "Pyramide - Ecole du Breuil", "network": "Vélib'" }, "geometry": { "type": "Point", "coordinates": [ 2.4587488, 48.8225873 ] } },
{ "type": "Feature", "properties": { "osmid": "6383986384", "amenity": "bicycle_rental", "capacity": "51", "name": "Gare RER de Vincennes", "network": "Vélib'" }, "geometry": { "type": "Point", "coordinates": [ 2.4332348, 48.847545 ] } },
{ "type": "Feature", "properties": { "osmid": "6389571744", "amenity": "bicycle_rental", "capacity": "33", "name": "Sainte-Elisabeth · Turbigo", "network": "Vélib'" }, "geometry": { "type": "Point", "coordinates": [ 2.3596278, 48.8660926 ] } },
{ "type": "Feature", "properties": { "osmid": "6389571745", "amenity": "bicycle_rental", "capacity": "28", "name": "Archives · Pastourelle", "network": "Vélib'" }, "geometry": { "type": "Point", "coordinates": [ 2.3595188, 48.8624372 ] } },
{ "type": "Feature", "properties": { "osmid": "6389571746", "amenity": "bicycle_rental", "capacity": "26", "name": "Centre Georges Pompidou", "network": "Vélib'" }, "geometry": { "type": "Point", "coordinates": [ 2.3525409, 48.8613954 ] } },
{ "type": "Feature", "properties": { "osmid": "6389571747", "amenity": "bicycle_rental", "capacity": "17", "name": "Beaubourg · Michel-le-Comte", "network": "Vélib'" }, "geometry": { "type": "Point", "coordinates": [ 2.3542486, 48.8624999 ] } },
{ "type": "Feature", "properties": { "osmid": "6389571748", "amenity": "bicycle_rental", "capacity": null, "name": null, "network": "Vélib'" }, "geometry": { "type": "Point", "coordinates": [ 2.3600097, 48.8684965 ] } },
{ "type": "Feature", "properties": { "osmid": "6389571749", "amenity": "bicycle_rental", "capacity": null, "name": null, "network": "Vélib'" }, "geometry": { "type": "Point", "coordinates": [ 2.3557832, 48.8685995 ] } },
{ "type": "Feature", "properties": { "osmid": "6389571750", "amenity": "bicycle_rental", "capacity": null, "name": null, "network": "Vélib'" }, "geometry": { "type": "Point", "coordinates": [ 2.3536696, 48.8674981 ] } },
{ "type": "Feature", "properties": { "osmid": "6389594164", "amenity": "bicycle_rental", "capacity": "24", "name": "Square Simon Bolivar", "network": "Velib'" }, "geometry": { "type": "Point", "coordinates": [ 2.3825758, 48.8750834 ] } },
{ "type": "Feature", "properties": { "osmid": "6389594165", "amenity": "bicycle_rental", "capacity": "20", "name": "Botzaris ·Parc des Buttes Chaumont", "network": "Velib'" }, "geometry": { "type": "Point", "coordinates": [ 2.3814623, 48.8779502 ] } },
{ "type": "Feature", "properties": { "osmid": "6389594166", "amenity": "bicycle_rental", "capacity": "20", "name": "Manin · Secrétan", "network": "Velib'" }, "geometry": { "type": "Point", "coordinates": [ 2.3785977, 48.8791658 ] } },
{ "type": "Feature", "properties": { "osmid": "6389594167", "amenity": "bicycle_rental", "capacity": "26", "name": "Manin · Simon Bolivar", "network": "Velib'" }, "geometry": { "type": "Point", "coordinates": [ 2.3794201, 48.8765033 ] } },
{ "type": "Feature", "properties": { "osmid": "6389594176", "amenity": "bicycle_rental", "capacity": "45", "name": "Temple - Charlot", "network": "Vélib'" }, "geometry": { "type": "Point", "coordinates": [ 2.3653644, 48.8656744 ] } },
{ "type": "Feature", "properties": { "osmid": "6389594177", "amenity": "bicycle_rental", "capacity": "36", "name": "Richard Lenoir · Jean-Pierre Timbaud", "network": "Vélib'" }, "geometry": { "type": "Point", "coordinates": [ 2.3693032, 48.8658519 ] } },
{ "type": "Feature", "properties": { "osmid": "6389594178", "amenity": "bicycle_rental", "capacity": "58", "name": "Richard Lenoir · République", "network": "Vélib'" }, "geometry": { "type": "Point", "coordinates": [ 2.3692914, 48.8665934 ] } },
{ "type": "Feature", "properties": { "osmid": "6389594179", "amenity": "bicycle_rental", "capacity": "58", "name": "Jules Ferry · Faubourg du Temple", "network": "Vélib'" }, "geometry": { "type": "Point", "coordinates": [ 2.3678484, 48.8684447 ] } },
{ "type": "Feature", "properties": { "osmid": "6389594180", "amenity": "bicycle_rental", "capacity": "60", "name": "Alibert · Jemmapes", "network": "Vélib'" }, "geometry": { "type": "Point", "coordinates": [ 2.3661602, 48.8710914 ] } },
{ "type": "Feature", "properties": { "osmid": "6389594181", "amenity": "bicycle_rental", "capacity": "17", "name": "Bourse du Travail", "network": "Vélib'" }, "geometry": { "type": "Point", "coordinates": [ 2.362289, 48.8690345 ] } },
{ "type": "Feature", "properties": { "osmid": "6408614820", "amenity": "bicycle_rental", "capacity": "30", "name": "Mairie du 12ème", "network": "Vélib’" }, "geometry": { "type": "Point", "coordinates": [ 2.3875652, 48.8408744 ] } },
{ "type": "Feature", "properties": { "osmid": "6417514114", "amenity": "bicycle_rental", "capacity": "38", "name": "Saint-Maur République", "network": "Vélib’" }, "geometry": { "type": "Point", "coordinates": [ 2.3782745, 48.8641872 ] } },
{ "type": "Feature", "properties": { "osmid": "6418400753", "amenity": "bicycle_rental", "capacity": null, "name": null, "network": "Vélib'" }, "geometry": { "type": "Point", "coordinates": [ 2.4449404, 48.8568447 ] } },
{ "type": "Feature", "properties": { "osmid": "6418479198", "amenity": "bicycle_rental", "capacity": "14", "name": "Abbeville - Faubourg Poissonnière", "network": "Vélib’" }, "geometry": { "type": "Point", "coordinates": [ 2.3491474, 48.879226 ] } },
{ "type": "Feature", "properties": { "osmid": "6418480208", "amenity": "bicycle_rental", "capacity": "39", "name": "Vivienne - Montmartre", "network": "Vélib’" }, "geometry": { "type": "Point", "coordinates": [ 2.3414049, 48.8712408 ] } },
{ "type": "Feature", "properties": { "osmid": "6419525434", "amenity": "bicycle_rental", "capacity": null, "name": "Reuilly - Daumesnil", "network": "Velib'" }, "geometry": { "type": "Point", "coordinates": [ 2.3974453, 48.8395052 ] } },
{ "type": "Feature", "properties": { "osmid": "6422056073", "amenity": "bicycle_rental", "capacity": "66", "name": "Bercy", "network": "velib" }, "geometry": { "type": "Point", "coordinates": [ 2.3787546, 48.8400675 ] } },
{ "type": "Feature", "properties": { "osmid": "6422056074", "amenity": "bicycle_rental", "capacity": "35", "name": "Gare de Bercy", "network": "velib" }, "geometry": { "type": "Point", "coordinates": [ 2.3827511, 48.8397396 ] } },
{ "type": "Feature", "properties": { "osmid": "6422056075", "amenity": "bicycle_rental", "capacity": "34", "name": "Bercy - Villot", "network": "velib" }, "geometry": { "type": "Point", "coordinates": [ 2.3767269, 48.8418487 ] } },
{ "type": "Feature", "properties": { "osmid": "6422056076", "amenity": "bicycle_rental", "capacity": "56", "name": "Dugommier", "network": "velib" }, "geometry": { "type": "Point", "coordinates": [ 2.3897604, 48.8388795 ] } },
{ "type": "Feature", "properties": { "osmid": "6422529316", "amenity": "bicycle_rental", "capacity": "34", "name": "Square René Viviani - Montebello", "network": "Velib'" }, "geometry": { "type": "Point", "coordinates": [ 2.3479233, 48.85198 ] } },
{ "type": "Feature", "properties": { "osmid": "6423680104", "amenity": "bicycle_rental", "capacity": null, "name": "Vélib'", "network": null }, "geometry": { "type": "Point", "coordinates": [ 2.3266309, 48.875683 ] } },
{ "type": "Feature", "properties": { "osmid": "6423992386", "amenity": "bicycle_rental", "capacity": "34", "name": "Victor Hugo - Galliéni", "network": "Vélib’" }, "geometry": { "type": "Point", "coordinates": [ 2.2459906, 48.8378648 ] } },
{ "type": "Feature", "properties": { "osmid": "6424014286", "amenity": "bicycle_rental", "capacity": "27", "name": "Charonne - Avron", "network": "Vélib’" }, "geometry": { "type": "Point", "coordinates": [ 2.3984206, 48.8516119 ] } },
{ "type": "Feature", "properties": { "osmid": "6424014288", "amenity": "bicycle_rental", "capacity": "32", "name": "Pyrénées - Avron", "network": "Vélib’" }, "geometry": { "type": "Point", "coordinates": [ 2.4058878, 48.8532577 ] } },
{ "type": "Feature", "properties": { "osmid": "6424015386", "amenity": "bicycle_rental", "capacity": "27", "name": "Arago - Glacière", "network": "Vélib’" }, "geometry": { "type": "Point", "coordinates": [ 2.3446182, 48.8348831 ] } },
{ "type": "Feature", "properties": { "osmid": "6424018385", "amenity": "bicycle_rental", "capacity": "28", "name": "Bagnolet - Place Saint-Blaise", "network": "Vélib’" }, "geometry": { "type": "Point", "coordinates": [ 2.4033424, 48.8597449 ] } },
{ "type": "Feature", "properties": { "osmid": "6424019685", "amenity": "bicycle_rental", "capacity": "23", "name": "Jardin de l'Hospice Debrousse", "network": "Vélib’" }, "geometry": { "type": "Point", "coordinates": [ 2.4056491, 48.8615025 ] } },
{ "type": "Feature", "properties": { "osmid": "6424019686", "amenity": "bicycle_rental", "capacity": "17", "name": "Buzenval - Vignoles", "network": "Vélib’" }, "geometry": { "type": "Point", "coordinates": [ 2.4000889, 48.8538745 ] } },
{ "type": "Feature", "properties": { "osmid": "6424020185", "amenity": "bicycle_rental", "capacity": "46", "name": "Cordelières - Arago", "network": "Vélib’" }, "geometry": { "type": "Point", "coordinates": [ 2.3485751, 48.8354915 ] } },
{ "type": "Feature", "properties": { "osmid": "6424022985", "amenity": "bicycle_rental", "capacity": "38", "name": "Indre - Prairies", "network": "Vélib’" }, "geometry": { "type": "Point", "coordinates": [ 2.403447, 48.862787 ] } },
{ "type": "Feature", "properties": { "osmid": "6424025185", "amenity": "bicycle_rental", "capacity": "45", "name": "Alexandre Dumas - Place de la Réunion", "network": "Vélib’" }, "geometry": { "type": "Point", "coordinates": [ 2.3996437, 48.8553146 ] } },
{ "type": "Feature", "properties": { "osmid": "6424025186", "amenity": "bicycle_rental", "capacity": "19", "name": "Pyrénées - Maraîchers", "network": "Vélib’" }, "geometry": { "type": "Point", "coordinates": [ 2.4043509, 48.8571544 ] } },
{ "type": "Feature", "properties": { "osmid": "6424025685", "amenity": "bicycle_rental", "capacity": "35", "name": "Charonne - Alexandre Dumas", "network": "Vélib’" }, "geometry": { "type": "Point", "coordinates": [ 2.3949391, 48.8561193 ] } },
{ "type": "Feature", "properties": { "osmid": "6424025686", "amenity": "bicycle_rental", "capacity": "29", "name": "Gambetta - Père Lachaise", "network": "Vélib’" }, "geometry": { "type": "Point", "coordinates": [ 2.3982248, 48.8642886 ] } },
{ "type": "Feature", "properties": { "osmid": "6424025687", "amenity": "bicycle_rental", "capacity": "47", "name": "Richard Lenoir - Place de la Bastille", "network": "Vélib’" }, "geometry": { "type": "Point", "coordinates": [ 2.3697102, 48.8538577 ] } },
{ "type": "Feature", "properties": { "osmid": "6424025688", "amenity": "bicycle_rental", "capacity": "33", "name": "Porte d'Auteuil", "network": "Vélib’" }, "geometry": { "type": "Point", "coordinates": [ 2.2607777, 48.8479557 ] } },
{ "type": "Feature", "properties": { "osmid": "6424025689", "amenity": "bicycle_rental", "capacity": "47", "name": "Caire - Dussoubs", "network": "Vélib’" }, "geometry": { "type": "Point", "coordinates": [ 2.3495454, 48.8678369 ] } },
{ "type": "Feature", "properties": { "osmid": "6424028385", "amenity": "bicycle_rental", "capacity": "36", "name": "Bagnolet - Orteaux", "network": "Vélib’" }, "geometry": { "type": "Point", "coordinates": [ 2.3984206, 48.8571182 ] } },
{ "type": "Feature", "properties": { "osmid": "6424028685", "amenity": "bicycle_rental", "capacity": "33", "name": "Gouthière - Poterne des Peupliers", "network": "Vélib’" }, "geometry": { "type": "Point", "coordinates": [ 2.3513097, 48.8204969 ] } },
{ "type": "Feature", "properties": { "osmid": "6424028686", "amenity": "bicycle_rental", "capacity": "22", "name": "Billancourt - Général Leclerc", "network": "Vélib’" }, "geometry": { "type": "Point", "coordinates": [ 2.2380406, 48.832299 ] } },
{ "type": "Feature", "properties": { "osmid": "6424028687", "amenity": "bicycle_rental", "capacity": "30", "name": "George Sand-Jean de La Fontaine", "network": "Vélib’" }, "geometry": { "type": "Point", "coordinates": [ 2.2682583, 48.8498673 ] } },
{ "type": "Feature", "properties": { "osmid": "6424034485", "amenity": "bicycle_rental", "capacity": "38", "name": "Santé - Arago", "network": "Vélib’" }, "geometry": { "type": "Point", "coordinates": [ 2.3415774, 48.8350678 ] } },
{ "type": "Feature", "properties": { "osmid": "6424034486", "amenity": "bicycle_rental", "capacity": "25", "name": "Silly - Galliéni", "network": "Vélib’" }, "geometry": { "type": "Point", "coordinates": [ 2.2324938, 48.8355706 ] } },
{ "type": "Feature", "properties": { "osmid": "6424034487", "amenity": "bicycle_rental", "capacity": "23", "name": "Port Royal - Hôpital Cochin", "network": "Vélib’" }, "geometry": { "type": "Point", "coordinates": [ 2.3407209, 48.8383715 ] } },
{ "type": "Feature", "properties": { "osmid": "6424035186", "amenity": "bicycle_rental", "capacity": "60", "name": "Square Boucicaut", "network": "Vélib’" }, "geometry": { "type": "Point", "coordinates": [ 2.3250514, 48.8512722 ] } },
{ "type": "Feature", "properties": { "osmid": "6424035187", "amenity": "bicycle_rental", "capacity": "66", "name": "Bastille - Biscorne", "network": "Vélib’" }, "geometry": { "type": "Point", "coordinates": [ 2.3691771, 48.8512488 ] } },
{ "type": "Feature", "properties": { "osmid": "6424035188", "amenity": "bicycle_rental", "capacity": "32", "name": "Marché d'Auteuil", "network": "Vélib’" }, "geometry": { "type": "Point", "coordinates": [ 2.265265, 48.8484191 ] } },
{ "type": "Feature", "properties": { "osmid": "6424035189", "amenity": "bicycle_rental", "capacity": "25", "name": "Square Émile - Chautemps", "network": "Vélib’" }, "geometry": { "type": "Point", "coordinates": [ 2.3536572, 48.8674928 ] } },
{ "type": "Feature", "properties": { "osmid": "6424035190", "amenity": "bicycle_rental", "capacity": "53", "name": "Rond-Point Rhin et Danube", "network": "Vélib’" }, "geometry": { "type": "Point", "coordinates": [ 2.2280815, 48.8406232 ] } },
{ "type": "Feature", "properties": { "osmid": "6424040185", "amenity": "bicycle_rental", "capacity": "16", "name": "Méchain - Faubourg Saint-Jacques", "network": "Vélib’" }, "geometry": { "type": "Point", "coordinates": [ 2.337992, 48.8358697 ] } },
{ "type": "Feature", "properties": { "osmid": "6424040485", "amenity": "bicycle_rental", "capacity": "27", "name": "Mairie du 20ème", "network": "Vélib’" }, "geometry": { "type": "Point", "coordinates": [ 2.3990831, 48.8653808 ] } },
{ "type": "Feature", "properties": { "osmid": "6424040486", "amenity": "bicycle_rental", "capacity": "34", "name": "Molitor-Chardon Lagache", "network": "Vélib’" }, "geometry": { "type": "Point", "coordinates": [ 2.2656861, 48.8452145 ] } },
{ "type": "Feature", "properties": { "osmid": "6424040487", "amenity": "bicycle_rental", "capacity": "21", "name": "Église d'Auteuil", "network": "Vélib’" }, "geometry": { "type": "Point", "coordinates": [ 2.2684836, 48.8475012 ] } },
{ "type": "Feature", "properties": { "osmid": "6424040786", "amenity": "bicycle_rental", "capacity": "18", "name": "Port-Royal - Hôpital du Val-de-Grâce", "network": "Vélib’" }, "geometry": { "type": "Point", "coordinates": [ 2.3448263, 48.8376873 ] } },
{ "type": "Feature", "properties": { "osmid": "6424040787", "amenity": "bicycle_rental", "capacity": "28", "name": "Président Wilson - Baudin", "network": "Vélib’" }, "geometry": { "type": "Point", "coordinates": [ 2.2849336, 48.8982733 ] } },
{ "type": "Feature", "properties": { "osmid": "6424042486", "amenity": "bicycle_rental", "capacity": "56", "name": "Ménilmontant · Père Lachaise", "network": "Vélib’" }, "geometry": { "type": "Point", "coordinates": [ 2.3872679, 48.8632485 ] } },
{ "type": "Feature", "properties": { "osmid": "6424042487", "amenity": "bicycle_rental", "capacity": "33", "name": "Repos · Cimetière du Père Lachaise", "network": "Vélib’" }, "geometry": { "type": "Point", "coordinates": [ 2.3895867, 48.8595823 ] } },
{ "type": "Feature", "properties": { "osmid": "6424043885", "amenity": "bicycle_rental", "capacity": "25", "name": "Cassini - Denfert-Rochereau", "network": "Vélib’" }, "geometry": { "type": "Point", "coordinates": [ 2.3359986, 48.8375612 ] } },
{ "type": "Feature", "properties": { "osmid": "6424043888", "amenity": "bicycle_rental", "capacity": "30", "name": "Georges Bernanos - Port Royal", "network": "Vélib’" }, "geometry": { "type": "Point", "coordinates": [ 2.3373717, 48.8401404 ] } },
{ "type": "Feature", "properties": { "osmid": "6424045486", "amenity": "bicycle_rental", "capacity": "45", "name": "Boulard · Daguerre", "network": "Vélib’" }, "geometry": { "type": "Point", "coordinates": [ 2.3293114, 48.8343812 ] } },
{ "type": "Feature", "properties": { "osmid": "6424049286", "amenity": "bicycle_rental", "capacity": "25", "name": "Ancienne Mairie - André Morizet", "network": "Vélib’" }, "geometry": { "type": "Point", "coordinates": [ 2.2341058, 48.8383512 ] } },
{ "type": "Feature", "properties": { "osmid": "6424049987", "amenity": "bicycle_rental", "capacity": "54", "name": "Molitor-Michel Ange", "network": "Vélib’" }, "geometry": { "type": "Point", "coordinates": [ 2.2621107, 48.8451792 ] } },
{ "type": "Feature", "properties": { "osmid": "6424052285", "amenity": "bicycle_rental", "capacity": "50", "name": "Schœlcher - Raspail", "network": "Vélib’" }, "geometry": { "type": "Point", "coordinates": [ 2.3312166, 48.8367469 ] } },
{ "type": "Feature", "properties": { "osmid": "6424056985", "amenity": "bicycle_rental", "capacity": "22", "name": "Église d'Auteuil", "network": "Vélib’" }, "geometry": { "type": "Point", "coordinates": [ 2.2684836, 48.8474959 ] } },
{ "type": "Feature", "properties": { "osmid": "6424064486", "amenity": "bicycle_rental", "capacity": "46", "name": "Lecourbe - Convention", "network": "Vélib’" }, "geometry": { "type": "Point", "coordinates": [ 2.2915416, 48.8392226 ] } },
{ "type": "Feature", "properties": { "osmid": "6424064487", "amenity": "bicycle_rental", "capacity": "22", "name": "Place de la Montagne du Goulet", "network": "Vélib’" }, "geometry": { "type": "Point", "coordinates": [ 2.2773832, 48.844339 ] } },
{ "type": "Feature", "properties": { "osmid": "6424067585", "amenity": "bicycle_rental", "capacity": "45", "name": "Plantes - Moulin Vert", "network": "Vélib’" }, "geometry": { "type": "Point", "coordinates": [ 2.3232264, 48.8300463 ] } },
{ "type": "Feature", "properties": { "osmid": "6424068485", "amenity": "bicycle_rental", "capacity": "25", "name": "Abbé Carton - Plantes", "network": "Vélib’" }, "geometry": { "type": "Point", "coordinates": [ 2.32074, 48.8277463 ] } },
{ "type": "Feature", "properties": { "osmid": "6424068486", "amenity": "bicycle_rental", "capacity": "18", "name": "Victor Massé - Jean-Baptiste Pigalle", "network": "Vélib’" }, "geometry": { "type": "Point", "coordinates": [ 2.3366444, 48.8811578 ] } },
{ "type": "Feature", "properties": { "osmid": "6424069787", "amenity": "bicycle_rental", "capacity": "26", "name": "Hôtel de Ville", "network": "Vélib’" }, "geometry": { "type": "Point", "coordinates": [ 2.288855, 48.8931507 ] } },
{ "type": "Feature", "properties": { "osmid": "6424073085", "amenity": "bicycle_rental", "capacity": "48", "name": "Convention · Vaugirard", "network": "Vélib’" }, "geometry": { "type": "Point", "coordinates": [ 2.2954824, 48.8377256 ] } },
{ "type": "Feature", "properties": { "osmid": "6424073086", "amenity": "bicycle_rental", "capacity": "55", "name": "Place de Barcelone-Mirabeau", "network": "Vélib’" }, "geometry": { "type": "Point", "coordinates": [ 2.2735691, 48.8476283 ] } },
{ "type": "Feature", "properties": { "osmid": "6424073087", "amenity": "bicycle_rental", "capacity": "51", "name": "Cauchy-Cévennes", "network": "Vélib’" }, "geometry": { "type": "Point", "coordinates": [ 2.2752267, 48.8433787 ] } },
{ "type": "Feature", "properties": { "osmid": "6424079587", "amenity": "bicycle_rental", "capacity": "36", "name": "Paul Vaillant-Couturier - Victor Hugo", "network": "Vélib’" }, "geometry": { "type": "Point", "coordinates": [ 2.2937661, 48.8981816 ] } },
{ "type": "Feature", "properties": { "osmid": "6424080888", "amenity": "bicycle_rental", "capacity": "32", "name": "Place de Rungis", "network": "Vélib’" }, "geometry": { "type": "Point", "coordinates": [ 2.3473878, 48.822472 ] } },
{ "type": "Feature", "properties": { "osmid": "6424080889", "amenity": "bicycle_rental", "capacity": "59", "name": "Place de la Porte de Châtillon", "network": "Vélib’" }, "geometry": { "type": "Point", "coordinates": [ 2.31859, 48.8241536 ] } },
{ "type": "Feature", "properties": { "osmid": "6424083985", "amenity": "bicycle_rental", "capacity": "49", "name": "Gare du Nord - Hôpital Lariboisière", "network": "Vélib’" }, "geometry": { "type": "Point", "coordinates": [ 2.3523463, 48.8819441 ] } },
{ "type": "Feature", "properties": { "osmid": "6424083986", "amenity": "bicycle_rental", "capacity": "26", "name": "Verdun - Place Henri IV", "network": "Vélib’" }, "geometry": { "type": "Point", "coordinates": [ 2.2273405, 48.8708565 ] } },
{ "type": "Feature", "properties": { "osmid": "6424085885", "amenity": "bicycle_rental", "capacity": "30", "name": "Charles Lecocq · Lecourbe", "network": "Vélib’" }, "geometry": { "type": "Point", "coordinates": [ 2.2949859, 48.8404166 ] } },
{ "type": "Feature", "properties": { "osmid": "6424088085", "amenity": "bicycle_rental", "capacity": "45", "name": "Place du Moulin de Javel", "network": "Vélib’" }, "geometry": { "type": "Point", "coordinates": [ 2.2715628, 48.8401165 ] } },
{ "type": "Feature", "properties": { "osmid": "6424089588", "amenity": "bicycle_rental", "capacity": "17", "name": "Général Martial Valin - Pont du Garigliano", "network": "Vélib’" }, "geometry": { "type": "Point", "coordinates": [ 2.270321, 48.8381905 ] } },
{ "type": "Feature", "properties": { "osmid": "6424090385", "amenity": "bicycle_rental", "capacity": "25", "name": "Gare du Nord - Saint-Vincent de Paul", "network": "Vélib’" }, "geometry": { "type": "Point", "coordinates": [ 2.3524469, 48.8809587 ] } },
{ "type": "Feature", "properties": { "osmid": "6424091592", "amenity": "bicycle_rental", "capacity": "21", "name": "Brillat-Savarin - Küss", "network": "Vélib’" }, "geometry": { "type": "Point", "coordinates": [ 2.350423, 48.8222102 ] } },
{ "type": "Feature", "properties": { "osmid": "6424099393", "amenity": "bicycle_rental", "capacity": "27", "name": "Marcelin Berthelot", "network": "Vélib’" }, "geometry": { "type": "Point", "coordinates": [ 2.2330248, 48.8415482 ] } },
{ "type": "Feature", "properties": { "osmid": "6424099394", "amenity": "bicycle_rental", "capacity": "26", "name": "Gare de Clichy-Levallois", "network": "Vélib’" }, "geometry": { "type": "Point", "coordinates": [ 2.29846, 48.8967956 ] } },
{ "type": "Feature", "properties": { "osmid": "6424099489", "amenity": "bicycle_rental", "capacity": "24", "name": "Bertrand Sincholle - Henri Barbusse", "network": "Vélib’" }, "geometry": { "type": "Point", "coordinates": [ 2.3042026, 48.8992854 ] } },
{ "type": "Feature", "properties": { "osmid": "6424103785", "amenity": "bicycle_rental", "capacity": "32", "name": "Gare de l'Est - Faubourg-Saint-Martin", "network": "Vélib’" }, "geometry": { "type": "Point", "coordinates": [ 2.3594213, 48.8756594 ] } },
{ "type": "Feature", "properties": { "osmid": "6424103786", "amenity": "bicycle_rental", "capacity": "46", "name": "Versailles - Claude Terrasse", "network": "Vélib’" }, "geometry": { "type": "Point", "coordinates": [ 2.2638407, 48.8402207 ] } },
{ "type": "Feature", "properties": { "osmid": "6424104885", "amenity": "bicycle_rental", "capacity": "47", "name": "Exelmans - Versailles", "network": "Vélib’" }, "geometry": { "type": "Point", "coordinates": [ 2.2644442, 48.8409515 ] } },
{ "type": "Feature", "properties": { "osmid": "6424106819", "amenity": "bicycle_rental", "capacity": "38", "name": "Sablons - Georges Mandel", "network": "Vélib’" }, "geometry": { "type": "Point", "coordinates": [ 2.2818379, 48.8638549 ] } },
{ "type": "Feature", "properties": { "osmid": "6424110081", "amenity": "bicycle_rental", "capacity": "25", "name": "Raymond Poincaré - Place Victor Hugo", "network": "Vélib'" }, "geometry": { "type": "Point", "coordinates": [ 2.2850536, 48.8703247 ] } },
{ "type": "Feature", "properties": { "osmid": "6424110585", "amenity": "bicycle_rental", "capacity": "45", "name": "Félix Faure - Convention", "network": "Vélib’" }, "geometry": { "type": "Point", "coordinates": [ 2.2884151, 48.8412145 ] } },
{ "type": "Feature", "properties": { "osmid": "6424110586", "amenity": "bicycle_rental", "capacity": "33", "name": "Exelmans - Michel-Ange", "network": "Vélib’" }, "geometry": { "type": "Point", "coordinates": [ 2.2598094, 48.8431087 ] } },
{ "type": "Feature", "properties": { "osmid": "6424110587", "amenity": "bicycle_rental", "capacity": "28", "name": "Boussingault - Tolbiac", "network": "Vélib’" }, "geometry": { "type": "Point", "coordinates": [ 2.3421816, 48.826044 ] } },
{ "type": "Feature", "properties": { "osmid": "6424114996", "amenity": "bicycle_rental", "capacity": "22", "name": "Traktir - Foch", "network": "Vélib'" }, "geometry": { "type": "Point", "coordinates": [ 2.2915221, 48.8727911 ] } },
{ "type": "Feature", "properties": { "osmid": "6424116486", "amenity": "bicycle_rental", "capacity": "24", "name": "Jules Guesdes - Général de Gaulle", "network": "Vélib’" }, "geometry": { "type": "Point", "coordinates": [ 2.2789443, 48.8193361 ] } },
{ "type": "Feature", "properties": { "osmid": "6424116487", "amenity": "bicycle_rental", "capacity": "25", "name": "Jules Guesde - Alsace", "network": "Vélib’" }, "geometry": { "type": "Point", "coordinates": [ 2.2950777, 48.8905583 ] } },
{ "type": "Feature", "properties": { "osmid": "6424117387", "amenity": "bicycle_rental", "capacity": "42", "name": "Raffet - Montmorency", "network": "Vélib’" }, "geometry": { "type": "Point", "coordinates": [ 2.2631487, 48.85258 ] } },
{ "type": "Feature", "properties": { "osmid": "6424121485", "amenity": "bicycle_rental", "capacity": "36", "name": "Convention - Lourmel", "network": "Vélib’" }, "geometry": { "type": "Point", "coordinates": [ 2.2859341, 48.8420769 ] } },
{ "type": "Feature", "properties": { "osmid": "6424121487", "amenity": "bicycle_rental", "capacity": "60", "name": "Porte Molitor", "network": "Vélib’" }, "geometry": { "type": "Point", "coordinates": [ 2.2569019, 48.845234 ] } },
{ "type": "Feature", "properties": { "osmid": "6424123885", "amenity": "bicycle_rental", "capacity": "22", "name": "Moulin de la Pointe", "network": "Vélib’" }, "geometry": { "type": "Point", "coordinates": [ 2.3563421, 48.8210022 ] } },
{ "type": "Feature", "properties": { "osmid": "6424124385", "amenity": "bicycle_rental", "capacity": "43", "name": "Place Etienne Pernet", "network": "Vélib’" }, "geometry": { "type": "Point", "coordinates": [ 2.2921193, 48.8423752 ] } },
{ "type": "Feature", "properties": { "osmid": "6424124386", "amenity": "bicycle_rental", "capacity": "53", "name": "Lakanal - Commerce", "network": "Vélib’" }, "geometry": { "type": "Point", "coordinates": [ 2.2940773, 48.8444679 ] } },
{ "type": "Feature", "properties": { "osmid": "6424124387", "amenity": "bicycle_rental", "capacity": "30", "name": "Place Violet", "network": "Vélib’" }, "geometry": { "type": "Point", "coordinates": [ 2.2905663, 48.8449074 ] } },
{ "type": "Feature", "properties": { "osmid": "6424125235", "amenity": "bicycle_rental", "capacity": "24", "name": "Eylau - Trocadéro", "network": "Vélib'" }, "geometry": { "type": "Point", "coordinates": [ 2.2863683, 48.8635604 ] } },
{ "type": "Feature", "properties": { "osmid": "6424125585", "amenity": "bicycle_rental", "capacity": "27", "name": "Place du Maréchal de Lattre de Tassigny", "network": "Vélib’" }, "geometry": { "type": "Point", "coordinates": [ 2.2853789, 48.8217237 ] } },
{ "type": "Feature", "properties": { "osmid": "6424128607", "amenity": "bicycle_rental", "capacity": "17", "name": "Saint-Didier - Raymond Poincaré", "network": "Vélib'" }, "geometry": { "type": "Point", "coordinates": [ 2.2857019, 48.8664409 ] } },
{ "type": "Feature", "properties": { "osmid": "6424141685", "amenity": "bicycle_rental", "capacity": "51", "name": "Gare SNCF Vanves-Malakoff", "network": "Vélib’" }, "geometry": { "type": "Point", "coordinates": [ 2.2918725, 48.8188645 ] } },
{ "type": "Feature", "properties": { "osmid": "6424141688", "amenity": "bicycle_rental", "capacity": "36", "name": "Butte aux Cailles - Esperance", "network": "Vélib’" }, "geometry": { "type": "Point", "coordinates": [ 2.3492036, 48.8275951 ] } },
{ "type": "Feature", "properties": { "osmid": "6424141689", "amenity": "bicycle_rental", "capacity": "65", "name": "Hôpital Européen Georges Pompidou", "network": "Vélib’" }, "geometry": { "type": "Point", "coordinates": [ 2.2756727, 48.8376653 ] } },
{ "type": "Feature", "properties": { "osmid": "6424142986", "amenity": "bicycle_rental", "capacity": "29", "name": "Larmeroux - Baudelaire", "network": "Vélib’" }, "geometry": { "type": "Point", "coordinates": [ 2.2811168, 48.8170013 ] } },
{ "type": "Feature", "properties": { "osmid": "6424147485", "amenity": "bicycle_rental", "capacity": "26", "name": "Reims - Porte d'Asnières", "network": "Vélib’" }, "geometry": { "type": "Point", "coordinates": [ 2.3001283, 48.8918281 ] } },
{ "type": "Feature", "properties": { "osmid": "6424147487", "amenity": "bicycle_rental", "capacity": "37", "name": "Reims - Raymond Pitet", "network": "Vélib’" }, "geometry": { "type": "Point", "coordinates": [ 2.2963196, 48.8888036 ] } },
{ "type": "Feature", "properties": { "osmid": "6424147885", "amenity": "bicycle_rental", "capacity": "28", "name": "Wurtz - Tolbiac", "network": "Vélib’" }, "geometry": { "type": "Point", "coordinates": [ 2.3445709, 48.8263307 ] } },
{ "type": "Feature", "properties": { "osmid": "6424147886", "amenity": "bicycle_rental", "capacity": "19", "name": "Lecourbe · Jean Maridor", "network": "Vélib’" }, "geometry": { "type": "Point", "coordinates": [ 2.2877312, 48.8380202 ] } },
{ "type": "Feature", "properties": { "osmid": "6424147887", "amenity": "bicycle_rental", "capacity": "22", "name": "Dominique Pado · Croix Nivert", "network": "Vélib’" }, "geometry": { "type": "Point", "coordinates": [ 2.2897938, 48.8364799 ] } },
{ "type": "Feature", "properties": { "osmid": "6424161586", "amenity": "bicycle_rental", "capacity": "30", "name": "Lucie Aubrac - Fort", "network": "Vélib’" }, "geometry": { "type": "Point", "coordinates": [ 2.2711793, 48.818144 ] } },
{ "type": "Feature", "properties": { "osmid": "6424161985", "amenity": "bicycle_rental", "capacity": "54", "name": "Vasco de Gama", "network": "Vélib’" }, "geometry": { "type": "Point", "coordinates": [ 2.2836907, 48.8367128 ] } },
{ "type": "Feature", "properties": { "osmid": "6424163585", "amenity": "bicycle_rental", "capacity": "24", "name": "Place Robert Guillemard", "network": "Vélib’" }, "geometry": { "type": "Point", "coordinates": [ 2.2811188, 48.8361513 ] } },
{ "type": "Feature", "properties": { "osmid": "6424163586", "amenity": "bicycle_rental", "capacity": "22", "name": "Square Desnouettes", "network": "Vélib’" }, "geometry": { "type": "Point", "coordinates": [ 2.2841263, 48.8347849 ] } },
{ "type": "Feature", "properties": { "osmid": "6424170286", "amenity": "bicycle_rental", "capacity": "51", "name": "Ernest Renan-Parc des Expositions", "network": "Vélib’" }, "geometry": { "type": "Point", "coordinates": [ 2.2852287, 48.8309254 ] } },
{ "type": "Feature", "properties": { "osmid": "6424170287", "amenity": "bicycle_rental", "capacity": "34", "name": "Croulebarde - Corvisart", "network": "Vélib’" }, "geometry": { "type": "Point", "coordinates": [ 2.3480616, 48.8311738 ] } },
{ "type": "Feature", "properties": { "osmid": "6424170288", "amenity": "bicycle_rental", "capacity": "23", "name": "Porte de la Plaine - Lefebvre", "network": "Vélib’" }, "geometry": { "type": "Point", "coordinates": [ 2.2920871, 48.8305564 ] } },
{ "type": "Feature", "properties": { "osmid": "6424170585", "amenity": "bicycle_rental", "capacity": "33", "name": "Bobillot - Tolbiac", "network": "Vélib’" }, "geometry": { "type": "Point", "coordinates": [ 2.3502052, 48.8256039 ] } },
{ "type": "Feature", "properties": { "osmid": "6424172986", "amenity": "bicycle_rental", "capacity": "23", "name": "Palais des Sports", "network": "Vélib’" }, "geometry": { "type": "Point", "coordinates": [ 2.2858724, 48.8334608 ] } },
{ "type": "Feature", "properties": { "osmid": "6424172988", "amenity": "bicycle_rental", "capacity": "24", "name": "Porte de Versailles", "network": "Vélib’" }, "geometry": { "type": "Point", "coordinates": [ 2.2870794, 48.8321401 ] } },
{ "type": "Feature", "properties": { "osmid": "6424177685", "amenity": "bicycle_rental", "capacity": "28", "name": "Cimetière Communal", "network": "Vélib’" }, "geometry": { "type": "Point", "coordinates": [ 2.2612712, 48.8189334 ] } },
{ "type": "Feature", "properties": { "osmid": "6424186285", "amenity": "bicycle_rental", "capacity": "31", "name": "Victor Cresson - Telles de la Poterie", "network": "Vélib’" }, "geometry": { "type": "Point", "coordinates": [ 2.2686499, 48.8227109 ] } },
{ "type": "Feature", "properties": { "osmid": "6424187987", "amenity": "bicycle_rental", "capacity": "36", "name": "Balard · Montagne de la Fage", "network": "Vélib’" }, "geometry": { "type": "Point", "coordinates": [ 2.2783019, 48.8385673 ] } },
{ "type": "Feature", "properties": { "osmid": "6424187988", "amenity": "bicycle_rental", "capacity": "34", "name": "Saint-Vincent - Verdun", "network": "Vélib’" }, "geometry": { "type": "Point", "coordinates": [ 2.2540104, 48.8192336 ] } },
{ "type": "Feature", "properties": { "osmid": "6424191585", "amenity": "bicycle_rental", "capacity": "41", "name": "Mairie d'Issy les Moulineaux", "network": "Vélib’" }, "geometry": { "type": "Point", "coordinates": [ 2.2723192, 48.8237722 ] } },
{ "type": "Feature", "properties": { "osmid": "6424195485", "amenity": "bicycle_rental", "capacity": "24", "name": "Kléber - Gouverneur Général Eboué", "network": "Vélib’" }, "geometry": { "type": "Point", "coordinates": [ 2.2723299, 48.8268995 ] } },
{ "type": "Feature", "properties": { "osmid": "6424212486", "amenity": "bicycle_rental", "capacity": "43", "name": "Jean Moulin - Place Victor et Hélène Basch", "network": "Vélib’" }, "geometry": { "type": "Point", "coordinates": [ 2.3258319, 48.8274623 ] } },
{ "type": "Feature", "properties": { "osmid": "6424238116", "amenity": "bicycle_rental", "capacity": "12", "name": "Square des Amandiers", "network": "Vélib’" }, "geometry": { "type": "Point", "coordinates": [ 2.3877145, 48.8655167 ] } },
{ "type": "Feature", "properties": { "osmid": "6424238117", "amenity": "bicycle_rental", "capacity": "34", "name": "Sorbier · Gasnier-Guy", "network": "Vélib’" }, "geometry": { "type": "Point", "coordinates": [ 2.3935982, 48.8652884 ] } },
{ "type": "Feature", "properties": { "osmid": "6424238118", "amenity": "bicycle_rental", "capacity": "20", "name": "Villiers de l'Isle Adam - Pyrénées", "network": "Vélib’" }, "geometry": { "type": "Point", "coordinates": [ 2.3962064, 48.8673486 ] } },
{ "type": "Feature", "properties": { "osmid": "6424238119", "amenity": "bicycle_rental", "capacity": "35", "name": "Gambetta - Hôpital Tenon", "network": "Vélib’" }, "geometry": { "type": "Point", "coordinates": [ 2.4010324, 48.867915 ] } },
{ "type": "Feature", "properties": { "osmid": "6424244241", "amenity": "bicycle_rental", "capacity": "25", "name": "Square des Saint-Simoniens", "network": "Vélib’" }, "geometry": { "type": "Point", "coordinates": [ 2.3966872, 48.870134 ] } },
{ "type": "Feature", "properties": { "osmid": "6424244242", "amenity": "bicycle_rental", "capacity": "26", "name": "Pyrénées - Ménilmontant", "network": "Vélib’" }, "geometry": { "type": "Point", "coordinates": [ 2.3950524, 48.8693613 ] } },
{ "type": "Feature", "properties": { "osmid": "6424244243", "amenity": "bicycle_rental", "capacity": "20", "name": "Boyer · Ménilmontant", "network": "Vélib’" }, "geometry": { "type": "Point", "coordinates": [ 2.3920111, 48.8689054 ] } },
{ "type": "Feature", "properties": { "osmid": "6424244244", "amenity": "bicycle_rental", "capacity": "24", "name": "Sorbier · Ménilmontant", "network": "Vélib’" }, "geometry": { "type": "Point", "coordinates": [ 2.3897989, 48.8685179 ] } },
{ "type": "Feature", "properties": { "osmid": "6424252608", "amenity": "bicycle_rental", "capacity": "15", "name": "Square de la rue Pixérécourt", "network": "Vélib’" }, "geometry": { "type": "Point", "coordinates": [ 2.3960123, 48.8738104 ] } },
{ "type": "Feature", "properties": { "osmid": "6424252609", "amenity": "bicycle_rental", "capacity": "20", "name": "Lassus · Delouvain", "network": "Vélib’" }, "geometry": { "type": "Point", "coordinates": [ 2.3890375, 48.8755417 ] } },
{ "type": "Feature", "properties": { "osmid": "6424252610", "amenity": "bicycle_rental", "capacity": "22", "name": "Jourdain · Place des Grandes Rigoles", "network": "Vélib’" }, "geometry": { "type": "Point", "coordinates": [ 2.3894543, 48.8741182 ] } },
{ "type": "Feature", "properties": { "osmid": "6424252611", "amenity": "bicycle_rental", "capacity": "21", "name": "Piat - Parc de Belleville", "network": "Vélib’" }, "geometry": { "type": "Point", "coordinates": [ 2.3849633, 48.871979 ] } },
{ "type": "Feature", "properties": { "osmid": "6424252612", "amenity": "bicycle_rental", "capacity": "50", "name": "Belleville · Couronnes", "network": "Vélib’" }, "geometry": { "type": "Point", "coordinates": [ 2.3812813, 48.8689025 ] } },
{ "type": "Feature", "properties": { "osmid": "6424252613", "amenity": "bicycle_rental", "capacity": "42", "name": "Ménilmontant - Oberkampf", "network": "Vélib’" }, "geometry": { "type": "Point", "coordinates": [ 2.3830052, 48.8666177 ] } },
{ "type": "Feature", "properties": { "osmid": "6424252614", "amenity": "bicycle_rental", "capacity": "33", "name": "Etienne Dolet · Place Maurice Chevalier", "network": "Vélib’" }, "geometry": { "type": "Point", "coordinates": [ 2.3850712, 48.868027 ] } },
{ "type": "Feature", "properties": { "osmid": "6424262849", "amenity": "bicycle_rental", "capacity": "40", "name": "Pyrénées - Emmery", "network": "Vélib’" }, "geometry": { "type": "Point", "coordinates": [ 2.3917692, 48.8721223 ] } },
{ "type": "Feature", "properties": { "osmid": "6424348085", "amenity": "bicycle_rental", "capacity": "26", "name": "Auguste Blanqui - Corvisart", "network": "Vélib’" }, "geometry": { "type": "Point", "coordinates": [ 2.3503441, 48.8299661 ] } },
{ "type": "Feature", "properties": { "osmid": "6424348086", "amenity": "bicycle_rental", "capacity": "47", "name": "Auguste Blanqui - Glacière", "network": "Vélib’" }, "geometry": { "type": "Point", "coordinates": [ 2.343807, 48.8311475 ] } },
{ "type": "Feature", "properties": { "osmid": "6424364585", "amenity": "bicycle_rental", "capacity": "23", "name": "Saint-Jacques - Tombe Issoire", "network": "Vélib’" }, "geometry": { "type": "Point", "coordinates": [ 2.3369132, 48.8332126 ] } },
{ "type": "Feature", "properties": { "osmid": "6424374985", "amenity": "bicycle_rental", "capacity": "23", "name": "Bobillot - Paulin Mery", "network": "Vélib’" }, "geometry": { "type": "Point", "coordinates": [ 2.3542998, 48.8299346 ] } },
{ "type": "Feature", "properties": { "osmid": "6424376685", "amenity": "bicycle_rental", "capacity": "52", "name": "Place d'Italie - Sœur Rosalie", "network": "Vélib’" }, "geometry": { "type": "Point", "coordinates": [ 2.3546925, 48.8319149 ] } },
{ "type": "Feature", "properties": { "osmid": "6424377185", "amenity": "bicycle_rental", "capacity": "40", "name": "Place d'Italie - Vincent Auriol", "network": "Vélib’" }, "geometry": { "type": "Point", "coordinates": [ 2.3567589, 48.8314891 ] } },
{ "type": "Feature", "properties": { "osmid": "6424995986", "amenity": "bicycle_rental", "capacity": "30", "name": "Bézout - Général Leclerc", "network": "Vélib’" }, "geometry": { "type": "Point", "coordinates": [ 2.3281571, 48.8288471 ] } },
{ "type": "Feature", "properties": { "osmid": "6425003685", "amenity": "bicycle_rental", "capacity": "24", "name": "Place des Droits de l'Enfant", "network": "Vélib’" }, "geometry": { "type": "Point", "coordinates": [ 2.3319217, 48.8274804 ] } },
{ "type": "Feature", "properties": { "osmid": "6425371786", "amenity": "bicycle_rental", "capacity": "25", "name": "Sibelle - Alésia", "network": "Vélib’" }, "geometry": { "type": "Point", "coordinates": [ 2.3386261, 48.8266717 ] } },
{ "type": "Feature", "properties": { "osmid": "6425389285", "amenity": "bicycle_rental", "capacity": "55", "name": "René Coty - Parc Montsouris", "network": "Vélib’" }, "geometry": { "type": "Point", "coordinates": [ 2.3361129, 48.8247823 ] } },
{ "type": "Feature", "properties": { "osmid": "6425397986", "amenity": "bicycle_rental", "capacity": "22", "name": "Sarrette - Général Leclerc", "network": "Vélib’" }, "geometry": { "type": "Point", "coordinates": [ 2.3264489, 48.825026 ] } },
{ "type": "Feature", "properties": { "osmid": "6427426037", "amenity": "bicycle_rental", "capacity": "24", "name": "Pierre Levée · Fontaine Timbaud", "network": "Velib'" }, "geometry": { "type": "Point", "coordinates": [ 2.371105, 48.8663224 ] } },
{ "type": "Feature", "properties": { "osmid": "6429990747", "amenity": "bicycle_rental", "capacity": "39", "name": "Odessa · Départ", "network": "Velib'" }, "geometry": { "type": "Point", "coordinates": [ 2.3244342, 48.8428423 ] } },
{ "type": "Feature", "properties": { "osmid": "6429990748", "amenity": "bicycle_rental", "capacity": "33", "name": "Gare Montparnasse · Edgar Quinet", "network": "Velib'" }, "geometry": { "type": "Point", "coordinates": [ 2.3232208, 48.8416237 ] } },
{ "type": "Feature", "properties": { "osmid": "6429990749", "amenity": "bicycle_rental", "capacity": "27", "name": "Edgar Quinet · Gaité", "network": "Velib'" }, "geometry": { "type": "Point", "coordinates": [ 2.3244761, 48.8411775 ] } },
{ "type": "Feature", "properties": { "osmid": "6429990750", "amenity": "bicycle_rental", "capacity": "46", "name": "Edgar Quinet · Raspail", "network": "Velib'" }, "geometry": { "type": "Point", "coordinates": [ 2.3294761, 48.8394901 ] } },
{ "type": "Feature", "properties": { "osmid": "6429990751", "amenity": "bicycle_rental", "capacity": "15", "name": "Chevreuse · Montparnasse", "network": "Velib'" }, "geometry": { "type": "Point", "coordinates": [ 2.3315598, 48.8417382 ] } },
{ "type": "Feature", "properties": { "osmid": "6429990752", "amenity": "bicycle_rental", "capacity": null, "name": null, "network": "Velib'" }, "geometry": { "type": "Point", "coordinates": [ 2.3350668, 48.8425347 ] } },
{ "type": "Feature", "properties": { "osmid": "6429990753", "amenity": "bicycle_rental", "capacity": null, "name": null, "network": "Velib'" }, "geometry": { "type": "Point", "coordinates": [ 2.3334085, 48.8437671 ] } },
{ "type": "Feature", "properties": { "osmid": "6429990754", "amenity": "bicycle_rental", "capacity": "19", "name": "Notre-Dame-des-Champs · Stanislas", "network": "Velib'" }, "geometry": { "type": "Point", "coordinates": [ 2.329347, 48.844798 ] } },
{ "type": "Feature", "properties": { "osmid": "6429990755", "amenity": "bicycle_rental", "capacity": "49", "name": "Montparnasse · Square Ozanam", "network": "Velib'" }, "geometry": { "type": "Point", "coordinates": [ 2.326652, 48.8434233 ] } },
{ "type": "Feature", "properties": { "osmid": "6429990756", "amenity": "bicycle_rental", "capacity": "24", "name": "Bréa · Raspail", "network": "Velib'" }, "geometry": { "type": "Point", "coordinates": [ 2.3297966, 48.8427382 ] } },
{ "type": "Feature", "properties": { "osmid": "6433028528", "amenity": "bicycle_rental", "capacity": "14", "name": "Boudreau - Auber", "network": "Vélib'" }, "geometry": { "type": "Point", "coordinates": [ 2.3294205, 48.8721989 ] } },
{ "type": "Feature", "properties": { "osmid": "6433036361", "amenity": "bicycle_rental", "capacity": "27", "name": "Lavandières Sainte-Opportune - Rivoli", "network": "Vélib'" }, "geometry": { "type": "Point", "coordinates": [ 2.346604, 48.8593007 ] } },
{ "type": "Feature", "properties": { "osmid": "6433039470", "amenity": "bicycle_rental", "capacity": null, "name": "Gare de Lyon - Place Louis Armand", "network": "Vélib'" }, "geometry": { "type": "Point", "coordinates": [ 2.3726753, 48.8455394 ] } },
{ "type": "Feature", "properties": { "osmid": "6433048199", "amenity": "bicycle_rental", "capacity": "33", "name": "Hoche - Tilsitt", "network": "Vélib'" }, "geometry": { "type": "Point", "coordinates": [ 2.2971313, 48.8748336 ] } },
{ "type": "Feature", "properties": { "osmid": "6433050323", "amenity": "bicycle_rental", "capacity": "37", "name": "Faubourg St-Antoine - Place de la Nation", "network": "Vélib’" }, "geometry": { "type": "Point", "coordinates": [ 2.3940221, 48.8487815 ] } },
{ "type": "Feature", "properties": { "osmid": "6433057571", "amenity": "bicycle_rental", "capacity": "43", "name": "Saint-Denis - Rivoli", "network": "Vélib'" }, "geometry": { "type": "Point", "coordinates": [ 2.34764, 48.8590644 ] } },
{ "type": "Feature", "properties": { "osmid": "6433120265", "amenity": "bicycle_rental", "capacity": "40", "name": "Mathurins - Auber", "network": "Vélib'" }, "geometry": { "type": "Point", "coordinates": [ 2.3294795, 48.8729803 ] } },
{ "type": "Feature", "properties": { "osmid": "6433138030", "amenity": "bicycle_rental", "capacity": "19", "name": "Charles de Gaulle - Madrid", "network": "Vélib'" }, "geometry": { "type": "Point", "coordinates": [ 2.2608411, 48.8843533 ] } },
{ "type": "Feature", "properties": { "osmid": "6433138032", "amenity": "bicycle_rental", "capacity": "29", "name": "Arsène Houssaye - Champs-Elysées", "network": "Vélib'" }, "geometry": { "type": "Point", "coordinates": [ 2.2978151, 48.8734479 ] } },
{ "type": "Feature", "properties": { "osmid": "6433138700", "amenity": "bicycle_rental", "capacity": "68", "name": "Fabre d'Eglantine - Place de la Nation", "network": "Vélib’" }, "geometry": { "type": "Point", "coordinates": [ 2.3955995, 48.8471144 ] } },
{ "type": "Feature", "properties": { "osmid": "6433145045", "amenity": "bicycle_rental", "capacity": "28", "name": "Beaujon - Wagram", "network": "Vélib'" }, "geometry": { "type": "Point", "coordinates": [ 2.2964275, 48.8753509 ] } },
{ "type": "Feature", "properties": { "osmid": "6433149877", "amenity": "bicycle_rental", "capacity": "50", "name": "Gare de Lyon - Chalon", "network": "Vélib'" }, "geometry": { "type": "Point", "coordinates": [ 2.3742067, 48.8456906 ] } },
{ "type": "Feature", "properties": { "osmid": "6433152496", "amenity": "bicycle_rental", "capacity": "26", "name": "Hôpital Bégin", "network": "Vélib'" }, "geometry": { "type": "Point", "coordinates": [ 2.4274442, 48.8457099 ] } },
{ "type": "Feature", "properties": { "osmid": "6433152505", "amenity": "bicycle_rental", "capacity": "22", "name": "Paris - Laitières", "network": "Vélib'" }, "geometry": { "type": "Point", "coordinates": [ 2.4207098, 48.8463065 ] } },
{ "type": "Feature", "properties": { "osmid": "6433154798", "amenity": "bicycle_rental", "capacity": "51", "name": "Gare de Lyon - Van Gogh", "network": "Vélib'" }, "geometry": { "type": "Point", "coordinates": [ 2.370511, 48.8438961 ] } },
{ "type": "Feature", "properties": { "osmid": "6433157196", "amenity": "bicycle_rental", "capacity": "30", "name": "Carnot - Général Lanrezac", "network": "Vélib'" }, "geometry": { "type": "Point", "coordinates": [ 2.2937604, 48.8754708 ] } },
{ "type": "Feature", "properties": { "osmid": "6433159066", "amenity": "bicycle_rental", "capacity": "22", "name": "Victoria · Place du Châtelet", "network": "Vélib'" }, "geometry": { "type": "Point", "coordinates": [ 2.3468887, 48.8580209 ] } },
{ "type": "Feature", "properties": { "osmid": "6433164397", "amenity": "bicycle_rental", "capacity": null, "name": "Château de Vincennes", "network": "Vélib'" }, "geometry": { "type": "Point", "coordinates": [ 2.4393726, 48.8441496 ] } },
{ "type": "Feature", "properties": { "osmid": "6433166994", "amenity": "bicycle_rental", "capacity": null, "name": "Jardin Alexandra David Neel", "network": "Vélib'" }, "geometry": { "type": "Point", "coordinates": [ 2.4235878, 48.8457321 ] } },
{ "type": "Feature", "properties": { "osmid": "6433219535", "amenity": "bicycle_rental", "capacity": "19", "name": "Temple · Haudriettes", "network": "Velib'" }, "geometry": { "type": "Point", "coordinates": [ 2.3566847, 48.8616478 ] } },
{ "type": "Feature", "properties": { "osmid": "6433219536", "amenity": "bicycle_rental", "capacity": "23", "name": "Place Edmond Michelet", "network": "Velib'" }, "geometry": { "type": "Point", "coordinates": [ 2.3501401, 48.8601644 ] } },
{ "type": "Feature", "properties": { "osmid": "6433219537", "amenity": "bicycle_rental", "capacity": "30", "name": "Saint-Séverin · Saint-Michel", "network": "Velib'" }, "geometry": { "type": "Point", "coordinates": [ 2.3441427, 48.8527053 ] } },
{ "type": "Feature", "properties": { "osmid": "6433219538", "amenity": "bicycle_rental", "capacity": "45", "name": "Harpe · Saint-Germain", "network": "Velib'" }, "geometry": { "type": "Point", "coordinates": [ 2.3436817, 48.8515263 ] } },
{ "type": "Feature", "properties": { "osmid": "6433219539", "amenity": "bicycle_rental", "capacity": "33", "name": "Pierre Sarrazin · Saint-Michel", "network": "Velib'" }, "geometry": { "type": "Point", "coordinates": [ 2.3421066, 48.8508678 ] } },
{ "type": "Feature", "properties": { "osmid": "6433219540", "amenity": "bicycle_rental", "capacity": "26", "name": "Vaugirard · Monsieur le Prince", "network": "Velib'" }, "geometry": { "type": "Point", "coordinates": [ 2.3410397, 48.8489201 ] } },
{ "type": "Feature", "properties": { "osmid": "6433219541", "amenity": "bicycle_rental", "capacity": "19", "name": "Cujas · Saint-Michel", "network": "Velib'" }, "geometry": { "type": "Point", "coordinates": [ 2.3418377, 48.8481876 ] } },
{ "type": "Feature", "properties": { "osmid": "6433219542", "amenity": "bicycle_rental", "capacity": "27", "name": "Maine - Liancourt", "network": "Vélib’" }, "geometry": { "type": "Point", "coordinates": [ 2.3237331, 48.8350546 ] } },
{ "type": "Feature", "properties": { "osmid": "6433219543", "amenity": "bicycle_rental", "capacity": "19", "name": "Saint-Jacques · Val de Grâce", "network": "Velib'" }, "geometry": { "type": "Point", "coordinates": [ 2.3412027, 48.8418644 ] } },
{ "type": "Feature", "properties": { "osmid": "6433219544", "amenity": "bicycle_rental", "capacity": "24", "name": "Gay Lussac · Saint-Jacques", "network": "Velib'" }, "geometry": { "type": "Point", "coordinates": [ 2.3419262, 48.8447254 ] } },
{ "type": "Feature", "properties": { "osmid": "6433219545", "amenity": "bicycle_rental", "capacity": "19", "name": "Saint-Jacques · Soufflot", "network": "Velib'" }, "geometry": { "type": "Point", "coordinates": [ 2.3431379, 48.8465357 ] } },
{ "type": "Feature", "properties": { "osmid": "6433219546", "amenity": "bicycle_rental", "capacity": "34", "name": "Sommerard · Saint-Jacques", "network": "Velib'" }, "geometry": { "type": "Point", "coordinates": [ 2.3450091, 48.8502765 ] } },
{ "type": "Feature", "properties": { "osmid": "6433219547", "amenity": "bicycle_rental", "capacity": "20", "name": "Place de la République · Temple", "network": "Velib'" }, "geometry": { "type": "Point", "coordinates": [ 2.3634865, 48.8671353 ] } },
{ "type": "Feature", "properties": { "osmid": "6433219548", "amenity": "bicycle_rental", "capacity": "43", "name": "Parmentier · Hôpital Saint-Louis", "network": "Velib'" }, "geometry": { "type": "Point", "coordinates": [ 2.3699295, 48.871388 ] } },
{ "type": "Feature", "properties": { "osmid": "6433219549", "amenity": "bicycle_rental", "capacity": "19", "name": "Buisson Saint-Louis · Saint-Maur", "network": "Velib'" }, "geometry": { "type": "Point", "coordinates": [ 2.3721882, 48.8718306 ] } },
{ "type": "Feature", "properties": { "osmid": "6433789467", "amenity": "bicycle_rental", "capacity": "33", "name": "Charenton - Wattignies", "network": "Vélib'" }, "geometry": { "type": "Point", "coordinates": [ 2.3917982, 48.8366809 ] } },
{ "type": "Feature", "properties": { "osmid": "6433792110", "amenity": "bicycle_rental", "capacity": "51", "name": "Gravelle - Route du Bac", "network": "Vélib'" }, "geometry": { "type": "Point", "coordinates": [ 2.4183841, 48.8244121 ] } },